_id,address,total_count,other_count,pistol_count,revolver_count,rifle_count,shotgun_count,year,month,dow,neighborhood,council_district,ward,tract,public_works_division,police_zone,fire_zone,latitude,longitude
1,"1700 BLOCK ARLINGTON AVE PITTSBURGH, PA 15210",2,0,1,1,0,0,2015,1,0,Mount Oliver Borough,3,0,42003170600,0,3,4-6,40.4176189902752,-79.9864357729389
2,"BREVET WAY & MINTON ST PITTSBURGH, PA 15204",1,0,1,0,0,0,2015,1,0,Sheraden,2,20,42003562500,5,6,1-16,40.4569036300887,-80.0523276105619
3,"TERRACE ST & WHITRIDGE ST PITTSBURGH, PA 15213",1,0,1,0,0,0,2015,1,0,Terrace Village,6,4,42003051000,3,2,2-10,40.4411851749623,-79.9685267530273
4,"3500 BLOCK GERBER AVE PITTSBURGH, PA 15212",1,0,1,0,0,0,2015,1,0,Brighton Heights,1,27,42003270300,1,1,1-14,40.4795301610082,-80.0334773540191
5,"7500 BLOCK KELLY ST PITTSBURGH, PA 15208",1,0,1,0,0,0,2015,1,0,,,,,,5,,,
6,"1900 BLOCK 5TH AVE PITTSBURGH, PA 15219",1,0,1,0,0,0,2015,1,0,Westwood,2,28,42003563100,5,6,1-18,40.4359838396036,-80.0520420475639
7,"400 BLOCK S NEGLEY AVE PITTSBURGH, PA 15232",1,0,1,0,0,0,2015,1,1,East Liberty,9,11,42003111500,2,5,3-8,40.4667705489182,-79.9282395704775
8,"5200 BLOCK DRESDEN WAY PITTSBURGH, PA 15201",2,0,2,0,0,0,2015,1,1,Upper Lawrenceville,7,10,42003101100,2,2,3-5,40.4801469015144,-79.9540136073542
9,"1100 BLOCK GRAND AVE PITTSBURGH, PA 15212",1,0,1,0,0,0,2015,1,1,Marshall-Shadeland,1,27,42003271500,1,1,1-14,40.4749864076206,-80.0275279156141
10,"1600 BLOCK FALLOWFIELD AVE PITTSBURGH, PA 15216",1,0,1,0,0,0,2015,1,1,Beechview,4,19,42003192000,5,6,4-28,40.4104873024514,-80.0239689958174
11,"8600 BLOCK BRICELYN ST PITTSBURGH, PA 15221",1,0,1,0,0,0,2015,1,1,East Hills,9,13,42003130600,2,5,3-17,40.4578647734886,-79.8743592274177
12,"3000 BLOCK VENSEL WAY PITTSBURGH, PA 15212",2,0,1,1,0,0,2015,1,2,Marshall-Shadeland,1,27,42003271500,1,1,1-14,40.4719871300818,-80.0287559800503
13,"200 BLOCK ERIN ST PITTSBURGH, PA 15219",1,0,1,0,0,0,2015,1,2,Arlington,3,16,42003561600,3,3,4-8,40.4156704160285,-79.9688545989056
14,"3100 BLOCK CORDELL PL PITTSBURGH, PA 15203",1,0,0,0,1,0,2015,1,2,Arlington Heights,3,16,42003561600,3,3,4-8,40.4177171713236,-79.963452973864
15,"200 BLOCK BAILEY AVE PITTSBURGH, PA 15211",1,0,1,0,0,0,2015,1,2,Mount Washington,3,18,42003180700,5,3,4-5,40.4269729627266,-80.0035033283611
16,"6100 BLOCK ST MARIE ST PITTSBURGH, PA 15206",1,0,1,0,0,0,2015,1,2,East Liberty,9,11,42003111300,2,5,3-8,40.4681641333973,-79.9191519303171
17,"SARAH ST & S 21ST ST PITTSBURGH, PA 15203",1,0,1,0,0,0,2015,1,3,South Side Flats,3,16,42003160900,3,3,4-24,40.4275964722009,-79.9763477687553
18,"5100 BLOCK GLOSTER ST PITTSBURGH, PA 15207",2,0,0,2,0,0,2015,1,3,Hazelwood,5,15,42003562900,3,4,2-13,40.4068131647254,-79.9442928153759
19,"7500 BLOCK HAMILTON AVE PITTSBURGH, PA 15208",1,0,1,0,0,0,2015,1,3,Homewood South,9,13,42003130300,2,5,3-17,40.4534765381578,-79.8924777788449
20,"4200 BLOCK MURRAY AVE PITTSBURGH, PA 15217",1,0,0,1,0,0,2015,1,3,Greenfield,5,15,42003151700,3,4,2-15,40.423189692055,-79.9286739194019
21,"BAUM BLVD & S AIKEN AVE PITTSBURGH, PA 15224",1,0,0,1,0,0,2015,1,4,Bloomfield,7,8,42003080600,2,5,3-23,40.4569407620077,-79.9385396480595
22,"<100 BLOCK INDUSTRY ST PITTSBURGH, PA 15210",2,0,1,0,1,0,2015,1,4,Beltzhoover,3,18,42003562400,5,3,4-21,40.4206287122311,-79.9997109011818
23,"7200 BLOCK KELLY ST PITTSBURGH, PA 15208",1,0,1,0,0,0,2015,1,4,Homewood South,9,13,42003130300,2,5,3-17,40.4555186499155,-79.8969956274934
24,"7100 BLOCK HERMITAGE ST PITTSBURGH, PA 15208",2,0,0,1,1,0,2015,1,4,Homewood North,9,13,42003130200,2,5,3-18,40.4607187563883,-79.897505025281
25,"HAZELWOOD AVE & CHATSWORTH AVE PITTSBURGH, PA 15207",1,0,1,0,0,0,2015,1,4,Hazelwood,5,15,42003562300,3,4,2-13,40.4114898392068,-79.9437698097432
26,"1500 BLOCK DAVIS AVE PITTSBURGH, PA 15212",1,0,1,0,0,0,2015,1,4,Brighton Heights,1,27,42003270100,1,1,1-14,40.4810703259512,-80.0379253696126
27,"900 BLOCK BRYN MAWR RD PITTSBURGH, PA 15219",1,0,1,0,0,0,2015,1,4,Upper Hill,6,5,42003050600,3,2,2-22,40.4519865301769,-79.9587941206057
28,"800 BLOCK BRIGHTRIDGE ST PITTSBURGH, PA 15212",1,0,1,0,0,0,2015,1,4,Perry South,6,25,42003261400,1,1,1-12,40.4627226049912,-80.0175871927848
29,"1500 BLOCK LINCOLN AVE PITTSBURGH, PA 15206",1,0,1,0,0,0,2015,1,4,Lincoln-Lemington-Belmar,9,12,42003561900,2,5,3-18,40.4686838773008,-79.895848339806
30,"2500 BLOCK CHAUNCEY DR PITTSBURGH, PA 15219",1,0,1,0,0,0,2015,1,5,Bedford Dwellings,6,5,42003050900,3,2,2-5,40.4509833047534,-79.9738397090324
31,"KELLY ST & N DALLAS AVE PITTSBURGH, PA 15208",2,0,1,1,0,0,2015,1,5,Homewood West,9,12,42003120700,2,5,3-17,40.4572143287336,-79.9043920202324
32,"2500 BLOCK CHAUNCEY DR PITTSBURGH, PA 15219",1,0,1,0,0,0,2015,1,5,Bedford Dwellings,6,5,42003050900,3,2,2-5,40.4509833047534,-79.9738397090324
33,"<100 BLOCK MERITT AVE PITTSBURGH, PA 15227",1,0,0,1,0,0,2015,1,5,Carrick,4,29,42003290400,3,3,4-23,40.3838377930553,-79.977855851711
34,"1600 BLOCK SANDUSKY CT PITTSBURGH, PA 15212",2,0,2,0,0,0,2015,1,5,Central Northside,6,25,42003220600,1,1,1-10,40.4589236267468,-80.0055084339585
35,"BEAVER AVE & ISLAND AVE PITTSBURGH, PA 15233",1,0,1,0,0,0,2015,1,5,Chateau,6,27,42003980900,1,1,1-8,40.4620696058784,-80.0321344460105
36,"CLIMAX ST & GEARING AVE PITTSBURGH, PA 15210",1,0,1,0,0,0,2015,1,5,Beltzhoover,3,18,42003562400,5,3,4-16,40.4191234596541,-80.0055032641023
37,"CRANE AVE & LOWENHILL ST PITTSBURGH, PA 15216",1,0,1,0,0,0,2015,1,5,Beechview,4,19,42003191600,5,6,4-28,40.417064924253,-80.0218177080157
38,"100 BLOCK FOUNTAIN ST PITTSBURGH, PA 15212",1,0,0,0,0,1,2015,1,5,Fineview,1,25,42003250900,1,1,1-10,40.4587585954775,-80.0019304117184
39,"3700 BLOCK CHARTIERS AVE PITTSBURGH, PA 15204",1,0,1,0,0,0,2015,1,5,Chartiers City,2,20,42003563000,5,6,1-16,40.4577482414309,-80.0727584904733
40,"6500 BLOCK HAMILTON AVE PITTSBURGH, PA 15206",2,0,2,0,0,0,2015,1,5,Larimer,9,12,42003120800,2,5,3-10,40.4589924478051,-79.9142657236002
41,"400 BLOCK KINGSBORO ST PITTSBURGH, PA 15211",1,0,1,0,0,0,2015,1,6,Beltzhoover,3,18,42003562400,5,3,4-5,40.4216197270626,-80.0005418038383
42,"LARIMER AVE & WINSLOW ST PITTSBURGH, PA 15206",1,0,1,0,0,0,2015,1,6,Larimer,9,12,42003120400,2,5,3-12,40.4657387599481,-79.9133564304215
43,"400 BLOCK CLIMAX ST PITTSBURGH, PA 15210",1,0,1,0,0,0,2015,1,6,Beltzhoover,3,18,42003562400,5,3,4-21,40.4198067872439,-80.0003494819561
44,"BLOOMFIELD BRG & BIGELOW BLVD PITTSBURGH, PA 15213",1,0,1,0,0,0,2015,1,6,Polish Hill,7,6,42003060500,6,2,2-6,40.4588071191719,-79.9579076378273
45,"HAMILTON AVE & PUTNAM ST PITTSBURGH, PA 15206",1,0,1,0,0,0,2015,2,0,Larimer,9,12,42003120800,2,5,3-10,40.458829712564,-79.9131312057691
46,"300 BLOCK W STATION SQUARE DR PITTSBURGH, PA 15203",1,0,1,0,0,0,2015,2,0,South Shore,2,19,42003980700,5,3,4-2,40.4349870298907,-80.0069907151145
47,"6500 BLOCK JACKSON ST PITTSBURGH, PA 15206",1,0,1,0,0,0,2015,2,0,Highland Park,7,11,42003110600,2,5,3-9,40.4728376496439,-79.9121224375572
48,"3200 BLOCK BRIGHTON RD PITTSBURGH, PA 15212",1,0,1,0,0,0,2015,2,0,Marshall-Shadeland,1,27,42003271500,1,1,1-14,40.4757891815702,-80.0311081190629
49,"WALLACE AVE & CENTER ST PITTSBURGH, PA 15221",1,0,1,0,0,0,2015,2,0,,,,42003561200,,OSC,3-16,40.4435575098173,-79.8814687847904
50,"HAMILTON AVE & BRUSHTON AVE PITTSBURGH, PA 15221",1,0,1,0,0,0,2015,2,0,Homewood South,9,13,42003130400,2,5,3-17,40.4527333267435,-79.8891937412148
51,"1800 BLOCK E CARSON ST PITTSBURGH, PA 15203",1,0,1,0,0,0,2015,2,1,South Side Flats,3,17,42003170200,3,3,4-24,40.4284868409739,-79.9802691087542
52,"100 BLOCK ROCHELLE ST PITTSBURGH, PA 15210",1,0,0,1,0,0,2015,2,1,Knoxville,3,30,42003300100,5,3,4-6,40.4151750679869,-79.9881100899007
53,"3800 BLOCK CLEMENT WAY PITTSBURGH, PA 15201",1,0,1,0,0,0,2015,2,1,Lower Lawrenceville,7,6,42003060300,2,2,3-6,40.4626436074343,-79.9608997811755
54,"500 BLOCK PAULSON AVE PITTSBURGH, PA 15206",1,0,1,0,0,0,2015,2,1,Larimer,9,12,42003120400,2,5,3-12,40.4632524802595,-79.9120987736764
55,"2400 BLOCK PERRYSVILLE AVE PITTSBURGH, PA 15214",1,0,0,1,0,0,2015,2,1,,,,,,1,,,
56,"1600 BLOCK BROWNSVILLE RD PITTSBURGH, PA 15210",1,0,1,0,0,0,2015,2,2,Carrick,4,29,42003290200,3,3,4-12,40.3998045691587,-79.9890669688938
57,"7400 BLOCK MONTICELLO ST PITTSBURGH, PA 15208",1,0,0,1,0,0,2015,2,2,Homewood North,9,13,42003130200,2,5,3-17,40.4583216061301,-79.8910159259068
58,"ARLINGTON AVE & PROCTOR WAY PITTSBURGH, PA 15210",1,0,1,0,0,0,2015,2,2,Allentown,3,18,42003180300,5,3,4-6,40.4204564842207,-79.9912593156125
59,"7300 BLOCK ANNAN WAY PITTSBURGH, PA 15208",1,0,1,0,0,0,2015,2,2,Homewood South,9,13,42003130300,2,5,3-17,40.4526855939746,-79.8966443719099
60,"7100 BLOCK FLETCHER WAY PITTSBURGH, PA 15208",1,0,1,0,0,0,2015,2,3,Homewood North,9,13,42003130200,2,5,3-18,40.4603589592752,-79.8975333414725
61,"ESSEN ST & PENFORT ST PITTSBURGH, PA 15214",1,0,1,0,0,0,2015,2,3,Spring Hill-City View,1,26,42003260900,1,1,1-13,40.4732083958375,-80.0028709970151
62,"BROAD ST & N GRAHAM ST PITTSBURGH, PA 15206",1,0,1,0,0,0,2015,2,3,Garfield,9,11,42003111400,2,5,3-4,40.465441710116,-79.9346640758478
63,"200 BLOCK WILBUR ST PITTSBURGH, PA 15210",3,1,2,0,0,0,2015,2,3,Knoxville,3,30,42003300100,5,3,4-7,40.4074431006746,-79.9925986155206
64,"500 BLOCK ARMANDALE ST PITTSBURGH, PA 15212",1,0,1,0,0,0,2015,2,3,Central Northside,6,25,42003250300,1,1,1-21,40.4585545257611,-80.0127295482565
65,"300 BLOCK E WARRINGTON AVE PITTSBURGH, PA 15210",1,0,1,0,0,0,2015,2,4,Beltzhoover,3,18,42003562400,5,3,4-16,40.4209340242423,-80.0023196507148
66,"GIST ST & LOCUST ST PITTSBURGH, PA 15219",4,0,2,1,1,0,2015,2,4,Bluff,6,1,42003010300,3,2,2-1,40.4365276248502,-79.9795766871551
67,"1000 BLOCK SILVERDALE ST PITTSBURGH, PA 15221",1,0,1,0,0,0,2015,2,4,Homewood North,9,13,42003130100,2,5,3-17,40.4559393895542,-79.8807695121168
68,"5500 BLOCK MARGARETTA ST PITTSBURGH, PA 15206",1,0,1,0,0,0,2015,2,4,Garfield,9,11,42003111400,2,5,3-8,40.4683787562424,-79.9301635709146
69,"1900 BLOCK SAW MILL RUN BLVD PITTSBURGH, PA 15210",1,0,1,0,0,0,2015,2,4,Overbrook,4,32,42003320600,5,3,4-25,40.3940451475447,-79.9972856091361
70,"CHARLES ST & IBIS WAY PITTSBURGH, PA 15210",1,0,0,0,1,0,2015,2,4,Knoxville,3,30,42003300100,5,3,4-6,40.416648959672,-79.9886575750774
71,"1100 BLOCK BRUSHTON AVE PITTSBURGH, PA 15221",1,0,1,0,0,0,2015,2,5,Homewood North,9,13,42003130100,2,5,3-17,40.4579459828259,-79.888380239953
72,"5400 BLOCK WATERFORD ST PITTSBURGH, PA 15224",1,0,1,0,0,0,2015,2,5,Garfield,9,10,42003101700,2,5,3-4,40.465306605804,-79.9369285127361
73,"700 BLOCK TAFT AVE PITTSBURGH, PA 15210",1,0,1,0,0,0,2015,2,5,Beltzhoover,3,18,42003562400,5,3,4-16,40.4157956117744,-80.0071355028209
74,"1700 BLOCK PERRYSVILLE AVE PITTSBURGH, PA 15212",2,1,0,1,0,0,2015,2,5,Perry South,6,25,42003250300,1,1,1-10,40.4603961926616,-80.0097081468016
75,"2700 BLOCK CENTRE AVE PITTSBURGH, PA 15219",1,0,1,0,0,0,2015,2,5,Terrace Village,6,5,42003051000,3,2,2-5,40.4471425289927,-79.9670278555567
76,"2500 BLOCK CHAUNCEY DR PITTSBURGH, PA 15219",1,0,1,0,0,0,2015,2,5,Bedford Dwellings,6,5,42003050900,3,2,2-5,40.4509833047534,-79.9738397090324
77,"600 BLOCK HILLSBORO ST PITTSBURGH, PA 15204",2,0,2,0,0,0,2015,2,5,,,,,,6,,,
78,"FORBES AVE & MOULTRIE ST PITTSBURGH, PA 15219",1,0,1,0,0,0,2015,2,6,Bluff,6,4,42003010300,3,2,2-1,40.4372049738672,-79.9744933841908
79,"500 BLOCK CEDARHURST ST PITTSBURGH, PA 15210",1,0,0,1,0,0,2015,2,6,Beltzhoover,3,18,42003562400,5,3,4-21,40.4183443390625,-79.9987940867966
80,"<100 BLOCK MT OLIVER ST PITTSBURGH, PA 15210",1,0,1,0,0,0,2015,2,6,South Side Slopes,3,17,42003170600,3,3,4-6,40.4214226708006,-79.9870884582861
81,"200 BLOCK JUCUNDA ST PITTSBURGH, PA 15210",1,0,0,1,0,0,2015,2,6,Knoxville,3,30,42003300100,5,3,4-6,40.417190555006,-79.9910522325694
82,"200 BLOCK HENDERSON ST PITTSBURGH, PA 15212",1,0,1,0,0,0,2015,2,6,Fineview,1,25,42003250900,1,1,1-10,40.4603253658888,-80.0016747061085
83,"5TH AVE & WASHINGTON PL PITTSBURGH, PA 15219",1,0,1,0,0,0,2015,2,6,Bluff,6,3,42003020100,6,2,2-4,40.4388146576534,-79.9909474299517
84,"GRANT ST & 6TH AVE PITTSBURGH, PA 15219",1,0,1,0,0,0,2015,2,6,Central Business District,6,2,42003020100,6,2,1-3,40.4407645617458,-79.9958855306031
85,"500 BLOCK LIBERTY AVE PITTSBURGH, PA 15222",1,0,1,0,0,0,2015,3,0,Central Business District,6,1,42003020100,6,2,1-3,40.4412175503666,-80.0035931077627
86,"100 BLOCK 19TH ST PITTSBURGH, PA 15222",1,0,1,0,0,0,2015,3,0,South Side Flats,3,17,42003170200,3,3,4-24,40.4281368118648,-79.9794544619025
87,"2900 BLOCK BANKSVILLE RD PITTSBURGH, PA 15216",1,0,1,0,0,0,2015,3,0,Banksville,2,20,42003202300,5,6,4-9,40.4030563546581,-80.0415398313648
88,"PERRYSVILLE AVE & MARSHALL RD PITTSBURGH, PA 15214",1,0,1,0,0,0,2015,3,0,Perry North,1,26,42003260700,1,1,1-23,40.4781698148745,-80.0120669101136
89,"PUTNAM ST & FRANKSTOWN AVE PITTSBURGH, PA 15206",1,0,1,0,0,0,2015,3,0,Larimer,9,12,42003120800,2,5,3-10,40.4599551157416,-79.9123809393205
90,"FRANKSTOWN AVE & COLLIER ST PITTSBURGH, PA 15208",1,0,0,1,0,0,2015,3,1,Homewood South,9,13,42003130300,2,5,3-17,40.4564009200712,-79.8919053652988
91,"400 BLOCK S TRENTON AVE PITTSBURGH, PA 15221",1,0,1,0,0,0,2015,3,1,,,,,,OSC,,,
92,"FEDERAL STN & JACKSONIA ST PITTSBURGH, PA 15212",1,0,1,0,0,0,2015,3,1,Central Northside,6,25,42003220600,1,1,1-21,40.4582708928984,-80.0075467432163
93,"1400 BLOCK WASHINGTON BLVD PITTSBURGH, PA 15206",1,0,0,1,0,0,2015,3,1,Lincoln-Lemington-Belmar,9,12,42003120300,2,5,3-12,40.4703805557972,-79.9086078732226
94,"5100 BLOCK COLUMBO ST PITTSBURGH, PA 15224",2,0,1,1,0,0,2015,3,1,Garfield,9,10,42003101600,2,5,3-4,40.4702809660058,-79.9402690934677
95,"N RICHLAND ST & SUSQUEHANNA ST PITTSBURGH, PA 15208",1,0,1,0,0,0,2015,3,1,Homewood South,9,13,42003130300,2,5,3-17,40.4518940435261,-79.8936268203665
96,"7200 BLOCK HAMILTON AVE PITTSBURGH, PA 15208",2,0,1,1,0,0,2015,3,2,Homewood South,9,13,42003130300,2,5,3-17,40.4546203094633,-79.8974964063787
97,"400 BLOCK ROSEDALE ST PITTSBURGH, PA 15221",1,0,1,0,0,0,2015,3,2,,9,,42003130400,,5,3-16,40.447688780542,-79.8881626598822
98,"400 BLOCK STANWIX ST PITTSBURGH, PA 15222",1,0,0,1,0,0,2015,3,2,Central Business District,6,1,42003020100,6,2,1-4,40.4408500373462,-80.0039886127867
99,"6500 BLOCK SHETLAND ST PITTSBURGH, PA 15206",1,0,1,0,0,0,2015,3,2,Larimer,9,12,42003120400,2,5,3-12,40.4634504533681,-79.9091694238062
100,"3300 BLOCK BAINTON ST PITTSBURGH, PA 15212",1,0,0,0,0,1,2015,3,2,,,,,,1,,,
101,"MICHIGAN ST & GEARING AVE PITTSBURGH, PA 15210",1,0,1,0,0,0,2015,3,2,Beltzhoover,3,18,42003562400,5,3,4-16,40.4158310857198,-80.0048723058062
102,"2800 BLOCK BANKSVILLE RD PITTSBURGH, PA 15216",1,0,1,0,0,0,2015,3,2,Banksville,2,20,42003202300,5,6,4-9,40.4049229001819,-80.0401487976792
103,"PERRYSVILLE AVE & MARSHALL RD PITTSBURGH, PA 15214",2,1,1,0,0,0,2015,3,2,Perry North,1,26,42003260700,1,1,1-23,40.4781698148745,-80.0120669101136
104,"NORMAN ST & BUENA VISTA ST PITTSBURGH, PA 15214",1,0,1,0,0,0,2015,3,2,Perry South,6,25,42003261400,1,1,1-10,40.4624851009688,-80.0139368883771
105,"1300 BLOCK E CARSON ST PITTSBURGH, PA 15203",1,0,1,0,0,0,2015,3,2,South Side Flats,3,17,42003170200,3,3,4-24,40.4286149368858,-79.9851784256069
106,"200 BLOCK S FAIRMOUNT ST PITTSBURGH, PA 15206",1,0,0,1,0,0,2015,3,2,Friendship,7,8,42003080700,2,5,3-23,40.4623353530439,-79.9338068865
107,"500 BLOCK ENRIGHT CT PITTSBURGH, PA 15206",1,0,0,0,0,1,2015,3,2,,,,,,5,,,
108,"1200 BLOCK WOODLAND AVE PITTSBURGH, PA 15212",1,0,1,0,0,0,2015,3,2,Marshall-Shadeland,1,27,42003271500,1,1,1-14,40.4697396230738,-80.0275103365149
109,"2400 BLOCK BROWNSVILLE RD PITTSBURGH, PA 15210",1,0,1,0,0,0,2015,3,3,Carrick,4,29,42003290400,3,3,4-23,40.3869345976777,-79.9835557643587
110,"2200 BLOCK N CHARLES ST PITTSBURGH, PA 15214",2,0,0,1,0,1,2015,3,3,Perry South,6,25,42003261400,1,1,1-12,40.4632224974554,-80.0198326978433
111,"BRYN MAWR RD & IOWA ST PITTSBURGH, PA 15219",2,0,0,2,0,0,2015,3,3,Upper Hill,6,5,42003050600,3,2,2-22,40.4514666457362,-79.9572541186785
112,"100 BLOCK AUBURN ST PITTSBURGH, PA 15206",1,0,1,0,0,0,2015,3,3,,,,,,5,,,
113,"7600 BLOCK SUSQUEHANNA ST PITTSBURGH, PA 15221",3,2,0,0,1,0,2015,3,4,Homewood South,9,13,42003130400,2,5,3-17,40.4510080914673,-79.8921614763654
114,"100 BLOCK KIRK AVE PITTSBURGH, PA 15210",2,0,1,0,0,1,2015,3,4,,,,,,3,,,
115,"CENTRE AVE & DEVILLIERS ST PITTSBURGH, PA 15219",1,0,1,0,0,0,2015,3,4,Crawford-Roberts,6,5,42003050100,3,2,2-1,40.4436483993491,-79.980333569546
116,"<100 BLOCK ELMORE ST PITTSBURGH, PA 15219",1,0,0,1,0,0,2015,3,5,Middle Hill,6,5,42003050100,3,2,2-1,40.4467202069578,-79.9787018349359
117,"BRUSHTON AVE & MONTICELLO ST PITTSBURGH, PA 15221",1,0,1,0,0,0,2015,3,5,Homewood North,9,13,42003130200,2,5,3-17,40.457917388693,-79.8883777263182
118,"300 BLOCK HARMAR ST PITTSBURGH, PA 15219",1,0,1,0,0,0,2015,3,5,Polish Hill,7,6,42003060500,6,2,2-6,40.4580869858574,-79.9689352794446
119,"AUBURN ST & LARIMER AVE PITTSBURGH, PA 15206",2,0,1,1,0,0,2015,3,5,Larimer,9,12,42003120800,2,5,3-10,40.4638673486009,-79.9167727657477
120,"1200 BLOCK PINERIDGE ST PITTSBURGH, PA 15208",1,0,1,0,0,0,2015,3,5,Homewood North,9,13,42003130100,2,5,3-17,40.459022534262,-79.8898723160879
121,"800 BLOCK EUREKA ST PITTSBURGH, PA 15210",1,0,1,0,0,0,2015,3,6,Allentown,3,18,42003180300,5,3,4-5,40.4236299703861,-79.9936963645088
122,"7100 BLOCK HAMILTON AVE PITTSBURGH, PA 15208",1,0,1,0,0,0,2015,3,6,Homewood South,9,13,42003130300,2,5,3-17,40.454813367931,-79.8993647550719
123,"7600 BLOCK FRANKSTOWN AVE PITTSBURGH, PA 15221",1,0,1,0,0,0,2015,3,6,Homewood South,9,13,42003130400,2,5,3-17,40.4556727252117,-79.8899789283927
124,"SAW MILL RUN BLVD & CRANE AVE PITTSBURGH, PA 15226",1,0,0,1,0,0,2015,3,6,Mount Washington,4,19,42003191500,5,3,4-28,40.4170990738553,-80.0145843460984
125,"WALDECK ST & BIGELOW ST PITTSBURGH, PA 15207",1,0,0,1,0,0,2015,4,0,Greenfield,5,15,42003562900,3,4,2-12,40.4251024469541,-79.9495084328874
126,"7500 BLOCK FELICIA WAY PITTSBURGH, PA 15208",1,0,1,0,0,0,2015,4,0,,,,,,5,,,
127,"ROMLEY WAY & HAMILTON AVE PITTSBURGH, PA 15206",1,0,1,0,0,0,2015,4,0,Larimer,9,12,42003120800,2,5,3-10,40.4584268529581,-79.9120991862536
128,"1600 BLOCK FIAT ST PITTSBURGH, PA 15210",1,0,0,1,0,0,2015,4,0,Brookline,4,32,42003320600,5,6,4-25,40.3991581771628,-80.0061006331282
129,"7200 BLOCK KELLY ST PITTSBURGH, PA 15208",1,0,1,0,0,0,2015,4,0,Homewood South,9,13,42003130300,2,5,3-17,40.4555186499155,-79.8969956274934
130,"600 BLOCK KIRTLAND ST PITTSBURGH, PA 15208",1,0,1,0,0,0,2015,4,0,Point Breeze,9,14,42003140600,3,4,3-14,40.4456421377292,-79.9077832292982
131,"PUTNAM ST & FRANKSTOWN AVE PITTSBURGH, PA 15206",2,0,2,0,0,0,2015,4,0,Larimer,9,12,42003120800,2,5,3-10,40.4599551157416,-79.9123809393205
132,"ELOISE ST & DROVERS WAY PITTSBURGH, PA 15212",1,0,1,0,0,0,2015,4,0,Central Northside,1,22,42003220600,1,1,1-21,40.45469318438,-80.0143333911246
133,"700 BLOCK N HOMEWOOD AVE PITTSBURGH, PA 15208",24,0,10,6,3,5,2015,4,1,Homewood South,9,13,42003130300,2,5,3-17,40.4556290191127,-79.8966745476016
134,"FRANKSTOWN AVE & PUTNAM ST PITTSBURGH, PA 15206",1,0,1,0,0,0,2015,4,1,Larimer,9,12,42003120800,2,5,3-10,40.4599551157416,-79.9123809393205
135,"500 BLOCK PROTECTORY PL PITTSBURGH, PA 15219",2,0,1,0,0,1,2015,4,1,Crawford-Roberts,6,3,42003030500,3,2,2-1,40.4414802840402,-79.9850242704509
136,"200 BLOCK POPLARGROVE ST PITTSBURGH, PA 15210",1,0,1,0,0,0,2015,4,1,Carrick,4,29,42003290200,3,3,4-12,40.3965591166003,-79.9847685012514
137,"1300 BLOCK HODGKISS ST PITTSBURGH, PA 15212",2,0,2,0,0,0,2015,4,1,Marshall-Shadeland,1,27,42003270400,1,1,1-14,40.4671486147232,-80.0295990648808
138,"1100 BLOCK BROWNSVILLE RD PITTSBURGH, PA 15210",1,0,1,0,0,0,2015,4,1,Carrick,4,29,42003290100,3,3,4-12,40.4049473205906,-79.9909025434676
139,"RACE ST & COLLIER ST PITTSBURGH, PA 15208",1,0,1,0,0,0,2015,4,2,Homewood North,9,13,42003130200,2,5,3-17,40.4578564265558,-79.8913369014292
140,"FRANKSTOWN AVE & BRUSHTON AVE PITTSBURGH, PA 15221",1,0,1,0,0,0,2015,4,2,Homewood South,9,13,42003130400,2,5,3-17,40.4555344380276,-79.8880963867104
141,"1400 BLOCK GRANDVIEW AVE PITTSBURGH, PA 15219",1,0,1,0,0,0,2015,4,2,,,,,,3,,,
142,"400 BLOCK PENFORT ST PITTSBURGH, PA 15214",1,0,0,1,0,0,2015,4,2,,,,,,1,,,
143,"800 BLOCK CASINO DR PITTSBURGH, PA 15233",3,0,2,0,0,1,2015,4,2,Chateau,6,21,42003980600,6,1,1-8,40.4468215489554,-80.020451607988
144,"BELTZHOOVER AVE & MICHIGAN ST PITTSBURGH, PA 15210",1,0,0,0,0,1,2015,4,2,Knoxville,3,18,42003300100,5,3,4-21,40.415969825292,-79.9971888876791
145,"1800 BLOCK DAVIS AVE PITTSBURGH, PA 15212",1,0,0,0,1,0,2015,4,2,Brighton Heights,1,27,42003270300,1,1,1-14,40.4798991313976,-80.0418455015798
146,"900 BLOCK BERRY ST PITTSBURGH, PA 15204",1,0,1,0,0,0,2015,4,3,,,,,,6,,,
147,"7100 BLOCK CHURCHLAND ST PITTSBURGH, PA 15206",1,0,1,0,0,0,2015,4,3,Lincoln-Lemington-Belmar,9,12,42003561900,2,5,3-18,40.4710709306129,-79.8967912613571
148,"1900 BLOCK MORRELL ST PITTSBURGH, PA 15212",1,0,0,0,1,0,2015,4,3,Brighton Heights,1,27,42003270100,1,1,1-14,40.4832783296913,-80.043066960943
149,"1700 BLOCK STRATMORE ST PITTSBURGH, PA 15205",3,0,1,2,0,0,2015,4,3,Crafton Heights,2,28,42003281500,5,6,1-18,40.4420066661322,-80.0569930899309
150,"1200 BLOCK NOLAN CT PITTSBURGH, PA 15221",1,0,1,0,0,0,2015,4,4,Homewood North,9,13,42003130100,2,5,3-17,40.4594394730591,-79.8868738733753
151,"600 BLOCK CHAUNCEY ST PITTSBURGH, PA 15219",1,0,1,0,0,0,2015,4,4,Middle Hill,6,5,42003050100,3,2,2-5,40.4474441783156,-79.973342469717
152,"7200 BLOCK MT VERNON ST PITTSBURGH, PA 15208",1,0,1,0,0,0,2015,4,4,Homewood North,9,13,42003130100,2,5,3-17,40.4611940783522,-79.8944010830047
153,"700 BLOCK MT PLEASANT RD PITTSBURGH, PA 15214",1,0,1,0,0,0,2015,4,4,Northview Heights,1,26,42003260900,1,1,1-13,40.4759997700279,-79.9982412589835
154,"2200 BLOCK JONQUIL WAY PITTSBURGH, PA 15210",4,0,1,2,1,0,2015,4,4,Arlington,3,16,42003561600,3,3,4-8,40.4159646062841,-79.9761809130868
155,"UPLAND ST & N LANG AVE PITTSBURGH, PA 15208",1,0,1,0,0,0,2015,4,4,Homewood North,9,13,42003130100,2,5,3-18,40.4627659348695,-79.8975520540997
156,"7300 BLOCK MONTICELLO ST PITTSBURGH, PA 15208",1,0,1,0,0,0,2015,4,4,Homewood North,9,13,42003130200,2,5,3-17,40.4588375462801,-79.8932531294066
157,"WOODLOW ST & CRUCIBLE ST PITTSBURGH, PA 15205",1,0,0,0,1,0,2015,4,5,Crafton Heights,2,28,42003281400,5,6,1-17,40.4470629488975,-80.0510509293571
158,"800 BLOCK INDUSTRY ST PITTSBURGH, PA 15210",1,0,1,0,0,0,2015,4,5,,,,,,3,,,
159,"<100 BLOCK WALDECK ST PITTSBURGH, PA 15207",1,0,1,0,0,0,2015,4,5,Greenfield,5,15,42003562900,3,4,2-12,40.4249446887468,-79.9510208192292
160,"HAMILTON AVE & 5TH AVE PITTSBURGH, PA 15208",1,0,1,0,0,0,2015,4,5,Homewood West,9,12,42003120700,2,5,3-17,40.4572898625102,-79.9090629890633
161,"300 BLOCK EAST OHIO ST PITTSBURGH, PA 15212",1,0,1,0,0,0,2015,4,5,,,,42003563900,,1,,40.4125315408834,-79.8427960425285
162,"2200 BLOCK EAST HILLS DR DR PITTSBURGH, PA 15221",1,0,1,0,0,0,2015,4,5,East Hills,9,13,42003130600,2,5,3-19,40.4539041976002,-79.8730925207885
163,"300 BLOCK HALKET ST PITTSBURGH, PA 15213",1,0,1,0,0,0,2015,4,5,South Oakland,3,4,42003040900,3,4,2-14,40.4370860222288,-79.9615430224765
164,"800 BLOCK BRYN MAWR RD PITTSBURGH, PA 15219",2,0,0,2,0,0,2015,4,5,Upper Hill,6,5,42003050600,3,2,2-22,40.4523591746224,-79.9602433521871
165,"7500 BLOCK THOMAS BLVD PITTSBURGH, PA 15208",1,0,1,0,0,0,2015,4,5,Point Breeze North,9,14,42003140500,2,4,3-14,40.4500161031202,-79.8953407175097
166,"100 BLOCK MC NEILLY RD PITTSBURGH, PA 15226",1,0,1,0,0,0,2015,4,5,,,,42003479000,,6,,40.3804256888934,-80.0066164966622
167,"2400 BLOCK CHAUNCEY DR PITTSBURGH, PA 15219",1,0,1,0,0,0,2015,4,5,Bedford Dwellings,6,5,42003050900,3,2,2-5,40.4498408057687,-79.9746251357847
168,"MILWAUKEE ST & ADELAIDE ST PITTSBURGH, PA 15219",1,0,1,0,0,0,2015,4,5,Upper Hill,6,5,42003050600,3,2,2-22,40.454700759463,-79.9607999579064
169,"HAMILTON AVE & ENTERPRISE ST PITTSBURGH, PA 15206",1,0,1,0,0,0,2015,4,5,Larimer,9,12,42003120800,2,5,3-10,40.4593461031372,-79.9144418884384
170,"2000 BLOCK ROSE ST PITTSBURGH, PA 15219",1,0,0,0,0,1,2015,4,5,Terrace Village,6,5,42003030500,3,2,2-1,40.4427118376738,-79.9796392207208
171,"500 BLOCK CHESTER AVE PITTSBURGH, PA 15214",1,0,1,0,0,0,2015,4,5,Perry South,6,26,42003261400,1,1,1-12,40.4665442392489,-80.0160821528121
172,"MADISON AVE & VISTA ST PITTSBURGH, PA 15212",1,0,1,0,0,0,2015,4,6,East Allegheny,1,23,42003563200,1,1,1-5,40.4581781191455,-79.9981477310768
173,"BEDFORD AVE & CHAUNCEY DR PITTSBURGH, PA 15219",1,0,1,0,0,0,2015,4,6,Bedford Dwellings,6,5,42003050900,3,2,2-5,40.4498121771878,-79.9746234202074
174,"CHATEAU ST & LIVERPOOL ST PITTSBURGH, PA 15233",1,0,1,0,0,0,2015,4,6,Chateau,6,21,42003980600,1,1,1-8,40.4546243496234,-80.0285718586981
175,"3300 BLOCK MOTOR ST PITTSBURGH, PA 15204",1,0,1,0,0,0,2015,4,6,Sheraden,2,20,42003562500,5,6,1-16,40.4594670130836,-80.0569724104552
176,"5200 BLOCK DEARBORN ST PITTSBURGH, PA 15224",1,0,0,1,0,0,2015,4,6,Garfield,9,10,42003101700,2,5,3-4,40.4652146364524,-79.9395692488706
177,"CRANE AVE & BANKSVILLE RD PITTSBURGH, PA 15216",1,0,1,0,0,0,2015,4,6,Beechview,2,20,42003202300,5,6,4-9,40.415918579881,-80.0299214550342
178,"1400 BLOCK FEDERAL STN PITTSBURGH, PA 15212",1,0,1,0,0,0,2015,4,6,Central Northside,6,25,42003220600,1,1,1-6,40.4579805101081,-80.0073883392294
179,"2100 BLOCK PARK HILL DR PITTSBURGH, PA 15221",1,0,1,0,0,0,2015,5,0,East Hills,9,13,42003130600,2,5,3-19,40.4529606359974,-79.8740246842376
180,"7000 BLOCK MT VERNON ST PITTSBURGH, PA 15208",2,0,0,0,1,1,2015,5,0,Homewood North,9,13,42003130100,2,5,3-18,40.4625297665184,-79.8995187532851
181,"500 BLOCK COLLINS AVE PITTSBURGH, PA 15206",1,0,0,1,0,0,2015,5,0,,,,,,5,,,
182,"300 BLOCK ENRIGHT CT PITTSBURGH, PA 15206",1,0,1,0,0,0,2015,5,1,East Liberty,9,12,42003111500,2,5,3-10,40.4608871491557,-79.9168404065684
183,"400 BLOCK LIBERTY AVE PITTSBURGH, PA 15222",1,0,1,0,0,0,2015,5,1,Central Business District,6,1,42003020100,6,2,1-3,40.4409698090743,-80.0056908034284
184,"1900 BLOCK ARLINGTON AVE PITTSBURGH, PA 15210",1,0,1,0,0,0,2015,5,1,Arlington,3,16,42003561600,3,3,4-22,40.4175120788998,-79.9805121134754
185,"JAMES ST & KNOLL ST PITTSBURGH, PA 15212",1,0,1,0,0,0,2015,5,1,East Allegheny,1,22,42003563200,1,1,1-6,40.4573898730746,-80.0018950463695
186,"500 BLOCK STADIUM ST PITTSBURGH, PA 15204",1,0,1,0,0,0,2015,5,1,Sheraden,2,20,42003562500,5,6,1-16,40.4599150006895,-80.0574196510947
187,"8000 BLOCK BENNETT ST PITTSBURGH, PA 15221",1,0,1,0,0,0,2015,5,2,East Hills,9,13,42003130600,2,5,3-17,40.4539325993753,-79.8841190303238
188,"900 BLOCK FARRAGUT ST PITTSBURGH, PA 15206",5,0,2,1,1,1,2015,5,2,Highland Park,7,11,42003110600,2,5,3-9,40.4710161833895,-79.9190019667044
189,"400 BLOCK PENFORT ST PITTSBURGH, PA 15214",3,0,1,0,1,1,2015,5,2,,,,,,1,,,
190,"5200 BLOCK DEARBORN ST PITTSBURGH, PA 15224",1,0,1,0,0,0,2015,5,2,Garfield,9,10,42003101700,2,5,3-4,40.4652146364524,-79.9395692488706
191,"700 BLOCK WYMORE ST PITTSBURGH, PA 15220",1,1,0,0,0,0,2015,5,2,Elliott,2,20,42003562600,5,6,1-17,40.4395793300042,-80.0409921475628
192,"5400 BLOCK BUTLER ST PITTSBURGH, PA 15201",1,0,1,0,0,0,2015,5,2,Upper Lawrenceville,7,10,42003101100,2,2,3-5,40.4828224965156,-79.9509526482563
193,"900 BLOCK RUE GRANDE VUE ST PITTSBURGH, PA 15220",1,0,0,0,1,0,2015,5,3,Marshall-Shadeland,1,27,42003271500,1,1,1-14,40.4757614666028,-80.0239619326626
194,"1900 BLOCK ARLINGTON AVE PITTSBURGH, PA 15210",2,0,0,2,0,0,2015,5,3,Arlington,3,16,42003561600,3,3,4-22,40.4175120788998,-79.9805121134754
195,"700 BLOCK DANUBE ST PITTSBURGH, PA 15219",1,0,1,0,0,0,2015,5,3,Upper Hill,6,5,42003050600,3,2,2-22,40.4536901523556,-79.9637974699605
196,"8000 BLOCK FRANKSTOWN AVE PITTSBURGH, PA 15221",1,0,1,0,0,0,2015,5,3,East Hills,9,13,42003130600,2,5,3-17,40.4552606237255,-79.8845868564995
197,"300 BLOCK HALKET ST PITTSBURGH, PA 15213",1,0,0,0,0,1,2015,5,3,South Oakland,3,4,42003040900,3,4,2-14,40.4370860222288,-79.9615430224765
198,"300 BLOCK MINTON ST PITTSBURGH, PA 15204",1,0,1,0,0,0,2015,5,3,Sheraden,2,20,42003562500,5,6,1-16,40.4583547324799,-80.049981895791
199,"S 18TH ST & SOUTHSIDE RIVERFRONT PARK ACCESS RD PITTSBURGH, PA 15203",1,0,0,1,0,0,2015,5,3,,,,,,3,,,
200,"3100 BLOCK CHARTIERS AVE PITTSBURGH, PA 15204",1,0,1,0,0,0,2015,5,3,Sheraden,2,20,42003202200,5,6,1-16,40.4538722967083,-80.0611043000205
201,"800 BLOCK EUREKA ST PITTSBURGH, PA 15210",2,0,2,0,0,0,2015,5,4,Allentown,3,18,42003180300,5,3,4-5,40.4236299703861,-79.9936963645088
202,"FEDERAL STN & JACKSONIA ST PITTSBURGH, PA 15212",1,0,1,0,0,0,2015,5,4,Central Northside,6,25,42003220600,1,1,1-21,40.4582708928984,-80.0075467432163
203,"3200 BLOCK CORDELL PL PITTSBURGH, PA 15203",1,0,1,0,0,0,2015,5,4,,,,,,3,,,
204,"EAST HILLS DR & WILNER DR PITTSBURGH, PA 15221",1,0,1,0,0,0,2015,5,4,East Hills,9,13,42003130600,2,5,3-19,40.4551122165632,-79.8711474662664
205,"800 BLOCK MC LAIN ST PITTSBURGH, PA 15210",1,0,1,0,0,0,2015,5,4,Allentown,3,18,42003180300,5,3,4-5,40.4242391853527,-79.9938605498022
206,"6500 BLOCK MEADOW ST PITTSBURGH, PA 15206",2,0,2,0,0,0,2015,5,5,Larimer,9,12,42003120800,2,5,3-12,40.4619794649971,-79.9112063255701
207,"1000 BLOCK WASHINGTON BLVD PITTSBURGH, PA 15206",1,0,1,0,0,0,2015,5,5,Lincoln-Lemington-Belmar,9,12,42003120300,2,5,3-12,40.4626436496069,-79.9056021566716
208,"300 BLOCK PAUL ST PITTSBURGH, PA 15211",2,0,1,1,0,0,2015,5,5,Elliott,2,20,42003562600,5,6,1-17,40.4462244921008,-80.034747210175
209,"SPRING ST & MOUNTAIN AVE PITTSBURGH, PA 15210",1,0,1,0,0,0,2015,5,5,Arlington,3,16,42003561600,3,3,4-8,40.4171356971803,-79.97761213584
210,"5300 BLOCK BROAD ST PITTSBURGH, PA 15224",1,0,1,0,0,0,2015,5,5,Garfield,9,10,42003101700,2,5,3-4,40.4658706888707,-79.9382301957338
211,"500 BLOCK CHESTER AVE PITTSBURGH, PA 15214",1,0,0,1,0,0,2015,5,5,Perry South,6,26,42003261400,1,1,1-12,40.4665442392489,-80.0160821528121
212,"2700 BLOCK CENTRE AVE PITTSBURGH, PA 15219",1,0,0,1,0,0,2015,5,5,Terrace Village,6,5,42003051000,3,2,2-5,40.4471425289927,-79.9670278555567
213,"N ST CLAIR ST & PENN AVE PITTSBURGH, PA 15206",1,0,1,0,0,0,2015,5,5,East Liberty,9,8,42003111500,2,5,3-8,40.4628501620644,-79.9288173732527
214,"2400 BLOCK CHAUNCEY DR PITTSBURGH, PA 15219",1,0,1,0,0,0,2015,5,5,Bedford Dwellings,6,5,42003050900,3,2,2-5,40.4498408057687,-79.9746251357847
215,"400 BLOCK CURTIN AVE PITTSBURGH, PA 15210",1,1,0,0,0,0,2015,5,6,Beltzhoover,3,18,42003562400,5,3,4-21,40.4189566433411,-79.9990108740878
216,"BROADHEAD FORDING RD & W PROSPECT AVE PITTSBURGH, PA 15205",1,0,1,0,0,0,2015,5,6,Fairywood,2,28,42003563000,5,6,1-16,40.4482855729703,-80.0824873970368
217,"500 BLOCK MT PLEASANT RD PITTSBURGH, PA 15214",1,0,1,0,0,0,2015,5,6,,,,,,1,,,
218,"2900 BLOCK STAFFORD ST PITTSBURGH, PA 15204",1,0,0,1,0,0,2015,5,6,Sheraden,2,20,42003562500,5,6,1-16,40.4567405354118,-80.0504727005128
219,"<100 BLOCK BLANFORD CT PITTSBURGH, PA 15206",2,0,2,0,0,0,2015,5,6,,,,,,5,,,
220,"4900 BLOCK 2ND AVE PITTSBURGH, PA 15207",1,0,1,0,0,0,2015,5,6,Hazelwood,5,15,42003562300,3,4,2-13,40.4097751007678,-79.9443669504557
221,"FRAZIER ST & DAWSON ST PITTSBURGH, PA 15213",1,0,1,0,0,0,2015,5,6,South Oakland,3,4,42003040900,3,4,2-11,40.4297807904072,-79.9542225504462
222,"2400 BLOCK CHAUNCEY DR PITTSBURGH, PA 15219",2,0,2,0,0,0,2015,6,0,Bedford Dwellings,6,5,42003050900,3,2,2-5,40.4498408057687,-79.9746251357847
223,"700 BLOCK N LANG AVE PITTSBURGH, PA 15208",1,0,1,0,0,0,2015,6,0,Homewood South,9,13,42003130300,2,5,3-17,40.4560674525382,-79.8992389478017
224,"5500 BLOCK HOWE ST PITTSBURGH, PA 15232",1,0,1,0,0,0,2015,6,0,Shadyside,8,7,42003070300,2,4,3-22,40.4502272306832,-79.9331787267846
225,"1900 BLOCK CENTRE AVE PITTSBURGH, PA 15219",1,0,0,1,0,0,2015,6,1,Crawford-Roberts,6,3,42003030500,3,2,2-1,40.4431918218873,-79.9809089877974
226,"700 BLOCK S NEGLEY AVE PITTSBURGH, PA 15232",1,0,1,0,0,0,2015,6,1,East Liberty,9,11,42003111300,2,5,3-8,40.4698183744927,-79.9266960314998
227,"7300 BLOCK STRANAHAN ST PITTSBURGH, PA 15206",1,0,0,1,0,0,2015,6,1,,,,,,5,,,
228,"700 BLOCK N LANG AVE PITTSBURGH, PA 15208",1,0,1,0,0,0,2015,6,1,Homewood South,9,13,42003130300,2,5,3-17,40.4560674525382,-79.8992389478017
229,"FRANKSTOWN AVE & FINLEY ST PITTSBURGH, PA 15206",1,0,0,1,0,0,2015,6,1,Larimer,9,12,42003120800,2,5,3-10,40.4591506493712,-79.9099179004395
230,"4800 BLOCK MCKNIGHT RD PITTSBURGH, PA",1,0,0,1,0,0,2015,6,1,,,,,,OSC,,,
231,"7900 BLOCK INGLENOOK PL PITTSBURGH, PA 15221",1,0,1,0,0,0,2015,6,2,Homewood South,9,13,42003130400,2,5,3-17,40.4511436737594,-79.8857405982737
232,"300 BLOCK NOBLES LN PITTSBURGH, PA 15210",2,0,2,0,0,0,2015,6,2,Carrick,4,29,42003290100,3,3,4-23,40.4023355159876,-79.9953069061871
233,"7TH AVE & GRANT ST PITTSBURGH, PA 15219",1,0,1,0,0,0,2015,6,2,Central Business District,6,2,42003020100,6,2,1-3,40.44216497399,-79.994961740797
234,"900 BLOCK N LINCOLN AVE PITTSBURGH, PA 15233",1,0,0,0,1,0,2015,6,2,Allegheny West,1,22,42003562700,1,1,1-7,40.4512027400746,-80.016517610987
235,"SHETLAND ST & TRIPOD WAY PITTSBURGH, PA 15206",1,0,0,1,0,0,2015,6,2,Larimer,9,12,42003120800,2,5,3-12,40.4612189529152,-79.9077481406262
236,"2100 BLOCK PARKLYN ST PITTSBURGH, PA 15234",1,0,1,0,0,0,2015,6,2,Overbrook,4,32,42003320700,5,3,4-25,40.387630891864,-80.005436109052
237,"7100 BLOCK LEMINGTON AVE PITTSBURGH, PA 15206",1,0,0,1,0,0,2015,6,2,,,,,,5,,,
238,"2400 BLOCK BEDFORD AVE PITTSBURGH, PA 15219",1,0,0,1,0,0,2015,6,2,Middle Hill,6,5,42003050100,3,2,2-5,40.4496143418734,-79.9742739984904
239,"5600 BLOCK SECOND AVE PITTSBURGH, PA 15207",1,0,0,0,1,0,2015,6,2,Hazelwood,5,15,42003562300,3,4,2-13,40.4008034116569,-79.9390660171278
240,"<100 BLOCK EDITH PL PITTSBURGH, PA 15213",1,0,0,1,0,0,2015,6,2,South Oakland,3,4,42003040900,3,4,2-11,40.4331373326213,-79.9548876539835
241,"100 BLOCK PASADENA PITTSBURGH, PA 15211",1,0,1,0,0,0,2015,6,2,Mount Washington,3,18,42003180700,5,3,4-5,40.4222572657219,-80.0018270421542
242,"ECKSTEIN PL & WADSWORTH ST PITTSBURGH, PA 15213",1,0,1,0,0,0,2015,6,2,Terrace Village,6,5,42003051000,3,2,2-10,40.4428327005728,-79.968153155952
243,"1000 BLOCK WOODLOW ST PITTSBURGH, PA 15205",1,0,0,0,1,0,2015,6,2,Crafton Heights,2,28,42003281400,5,6,1-17,40.4458030664507,-80.0523889710639
244,"BROWNSVILLE RD & BISCAYNE DR PITTSBURGH, PA 15210",1,0,1,0,0,0,2015,6,3,Carrick,4,29,42003290400,3,3,4-12,40.3873323835433,-79.9838018056624
245,"SEDGWICK ST & N FRANKLIN ST PITTSBURGH, PA 15233",1,0,1,0,0,0,2015,6,3,Manchester,6,21,42003210700,1,1,1-8,40.4566080012672,-80.0230418639842
246,"7300 BLOCK KELLY ST PITTSBURGH, PA 15208",1,0,1,0,0,0,2015,6,3,Homewood South,9,13,42003130300,2,5,3-17,40.4548145448536,-79.8948294399795
247,"ATLANTA ST & GARFIELD AVE PITTSBURGH, PA 15212",1,0,0,0,1,0,2015,6,3,Central Northside,6,25,42003250300,1,1,1-21,40.4588136698561,-80.0126839619098
248,"200 BLOCK MOORE AVE PITTSBURGH, PA 15210",7,0,3,0,3,1,2015,6,3,Knoxville,3,30,42003300100,5,3,4-7,40.411391761096,-79.9904119074762
249,"2100 BLOCK PLAINVIEW AVE PITTSBURGH, PA 15226",2,0,1,1,0,0,2015,6,3,Brookline,4,19,42003191700,5,6,4-26,40.4015920789885,-80.0201069668794
250,"4900 BLOCK KINCAID ST PITTSBURGH, PA",1,0,1,0,0,0,2015,6,3,Garfield,9,10,42003101700,2,5,3-4,40.467524623881,-79.944692448937
251,"300 BLOCK JUCUNDA ST PITTSBURGH, PA 15210",1,0,1,0,0,0,2015,6,3,Knoxville,3,30,42003300100,5,3,4-21,40.4170917448537,-79.9932429500465
252,"2100 BLOCK KOERNER AVE PITTSBURGH, PA 15214",1,0,0,1,0,0,2015,6,3,Perry South,6,25,42003261400,1,1,1-10,40.4644724553885,-80.0105823622413
253,"2600 BLOCK SALISBURY ST PITTSBURGH, PA 15210",1,0,1,0,0,0,2015,6,3,South Side Slopes,3,16,42003160800,3,3,4-22,40.4183603670613,-79.9710447793193
254,"300 BLOCK N CRAIG ST PITTSBURGH, PA 15213",1,0,0,0,1,0,2015,6,4,North Oakland,8,4,42003040400,3,4,2-9,40.4455675194512,-79.9491461815725
255,"900 BLOCK CALCUTTA WAY PITTSBURGH, PA 15220",2,0,2,0,0,0,2015,6,4,,,,,,6,,,
256,"AUBURN ST & LOWELL ST PITTSBURGH, PA 15206",2,0,2,0,0,0,2015,6,4,Larimer,9,12,42003120800,2,5,3-12,40.4607415502711,-79.9132743168686
257,"100 BLOCK ENTERPRISE ST PITTSBURGH, PA 15206",2,0,2,0,0,0,2015,6,4,,,,,,5,,,
258,"7000 BLOCK BENNETT ST PITTSBURGH, PA 15208",1,0,1,0,0,0,2015,6,4,Homewood South,9,13,42003130300,2,5,3-17,40.4575467628153,-79.901450962527
259,"900 BLOCK PERALTA ST PITTSBURGH, PA 15212",1,0,1,0,0,0,2015,6,4,East Allegheny,1,23,42003563200,1,1,1-5,40.4558321998641,-79.9947686192706
260,"4800 BLOCK MONONGAHELA ST PITTSBURGH, PA 15207",1,0,1,0,0,0,2015,6,4,Hazelwood,5,15,42003562300,3,4,2-13,40.4112919641888,-79.9426332284025
261,"PENN AVE & N NEGLEY AVE PITTSBURGH, PA 15206",1,0,1,0,0,0,2015,6,4,East Liberty,9,8,42003111500,2,5,3-8,40.4635121897205,-79.9306639767724
262,"FRANKSTOWN AVE & N BRADDOCK AVE PITTSBURGH, PA 15208",1,0,0,1,0,0,2015,6,5,Homewood South,9,13,42003130400,2,5,3-17,40.4559655486508,-79.8900241646949
263,"800 BLOCK ESTELLA AVE PITTSBURGH, PA 15210",1,0,0,1,0,0,2015,6,5,Beltzhoover,3,18,42003562400,5,3,4-21,40.4158027235094,-80.0005748575709
264,"1000 BLOCK SAW MILL RUN BLVD PITTSBURGH, PA 15226",1,0,1,0,0,0,2015,6,5,Mount Washington,2,19,42003191400,5,3,4-27,40.4249714432044,-80.0200329974939
265,"WESTERN AVE & CHATEAU ST RAMP PITTSBURGH, PA 15233",2,0,1,1,0,0,2015,6,5,Chateau,6,21,42003980600,1,1,1-8,40.4505894889659,-80.0269223013746
266,"3000 BLOCK ARLINGTON AVE PITTSBURGH, PA 15210",1,0,1,0,0,0,2015,6,5,Arlington Heights,3,16,42003561600,3,3,4-22,40.4173449108972,-79.9656416888851
267,"3200 BLOCK DOWNING ST PITTSBURGH, PA 15219",1,0,0,1,0,0,2015,6,5,Polish Hill,7,6,42003060500,6,2,2-6,40.4582104249068,-79.9670476733717
268,"500 BLOCK LINCOLN AVE PITTSBURGH, PA 15206",1,0,1,0,0,0,2015,6,5,Larimer,9,12,42003120800,2,5,3-12,40.4610662679211,-79.9097548380336
269,"2700 BLOCK PIONEER AVE PITTSBURGH, PA 15226",1,0,1,0,0,0,2015,6,5,Brookline,4,19,42003191900,5,6,4-26,40.3949157120833,-80.0253213482213
270,"3500 BLOCK FLEMING AVE PITTSBURGH, PA 15212",1,0,1,0,0,0,2015,6,5,Brighton Heights,1,27,42003270300,1,1,1-14,40.4785954963994,-80.038477869206
271,"1000 BLOCK ROSSELLE CT PITTSBURGH, PA 15207",1,0,1,0,0,0,2015,6,5,,,,,,4,,,
272,"900 BLOCK GERRITT ST PITTSBURGH, PA 15208",1,0,1,0,0,0,2015,6,6,Homewood West,9,12,42003120700,2,5,3-17,40.458618928476,-79.9021402428927
273,"200 BLOCK HAZLETT ST PITTSBURGH, PA 15214",1,0,0,1,0,0,2015,6,6,Middle Hill,6,5,42003050100,3,2,2-5,40.4465526866258,-79.9715338582981
274,"BRUSHTON AVE & MOHLER ST PITTSBURGH, PA 15221",1,0,1,0,0,0,2015,6,6,Homewood North,9,13,42003130100,2,5,3-17,40.4605405467711,-79.8885130272097
275,"100 BLOCK E MC INTYRE AVE PITTSBURGH, PA 15214",1,0,1,0,0,0,2015,7,0,Perry South,6,26,42003261400,1,1,1-12,40.4685389638823,-80.011788521934
276,"LARIMER AVE & STATION ST PITTSBURGH, PA 15206",1,0,1,0,0,0,2015,7,0,East Liberty,9,11,42003111500,2,5,3-10,40.4619687481277,-79.9196801032443
277,"100 BLOCK ENTERPRISE ST PITTSBURGH, PA 15206",1,0,1,0,0,0,2015,7,0,,,,,,5,,,
278,"1000 BLOCK SHEFFIELD ST PITTSBURGH, PA 15233",1,0,1,0,0,0,2015,7,0,,,,,,1,,,
279,"200 BLOCK COPPERFIELD AVE PITTSBURGH, PA 15210",1,0,1,0,0,0,2015,7,0,,,,,,3,,,
280,"WRIGHTS WAY & S 18TH ST PITTSBURGH, PA 15203",1,1,0,0,0,0,2015,7,0,South Side Flats,3,17,42003170200,3,3,4-24,40.4292363448493,-79.9805170263058
281,"100 BLOCK MILLBRIDGE ST PITTSBURGH, PA 15210",2,0,2,0,0,0,2015,7,0,Allentown,3,18,42003180300,5,3,4-21,40.421752426669,-79.9958297289367
282,"300 BLOCK WOODRUFF ST PITTSBURGH, PA 15211",1,0,1,0,0,0,2015,7,0,Mount Washington,2,19,42003190300,5,3,4-27,40.4309040497634,-80.0107576498142
283,"2400 BLOCK CHAUNCEY DR PITTSBURGH, PA 15219",1,0,1,0,0,0,2015,7,0,Bedford Dwellings,6,5,42003050900,3,2,2-5,40.4498408057687,-79.9746251357847
284,"2100 BLOCK KOERNER AVE PITTSBURGH, PA 15214",3,1,0,0,2,0,2015,7,1,Perry South,6,25,42003261400,1,1,1-10,40.4644724553885,-80.0105823622413
285,"1600 BLOCK PENNSYLVANIA AVE PITTSBURGH, PA 15233",1,0,1,0,0,0,2015,7,1,Chateau,6,21,42003980600,1,1,1-8,40.4532912780807,-80.0290513257979
286,"FRANKSTOWN AVE & EAST LIBERTY BLVD PITTSBURGH, PA 15206",3,0,2,1,0,0,2015,7,1,East Liberty,9,12,42003120800,2,5,3-10,40.4608138066626,-79.9158059461369
287,"FRANKSTOWN AVE & EAST LIBERTY BLVD PITTSBURGH, PA 15206",1,0,1,0,0,0,2015,7,1,East Liberty,9,12,42003120800,2,5,3-10,40.4608138066626,-79.9158059461369
288,"7100 BLOCK THOMAS ST PITTSBURGH, PA 15208",1,0,0,1,0,0,2015,7,1,Point Breeze North,9,14,42003140500,2,4,3-14,40.4513526419101,-79.9022883001431
289,"4800 BLOCK MITRE WAY PITTSBURGH, PA 15224",4,0,2,0,1,1,2015,7,1,Bloomfield,7,8,42003080400,2,5,3-1,40.4602335568401,-79.9472419073639
290,"2100 BLOCK ARLINGTON AVE PITTSBURGH, PA 15210",1,0,1,0,0,0,2015,7,1,Arlington,3,16,42003160800,3,3,4-22,40.4176808511035,-79.9772868505758
291,"6500 BLOCK FRANKSTOWN AVE PITTSBURGH, PA 15206",1,0,1,0,0,0,2015,7,1,Larimer,9,12,42003120800,2,5,3-10,40.4604152411552,-79.9137653117153
292,"7300 BLOCK IDLEWILD ST PITTSBURGH, PA 15208",1,0,1,0,0,0,2015,7,1,Homewood North,9,13,42003130200,2,5,3-17,40.4575042265969,-79.8937841049223
293,"2900 BLOCK BRIGHTON RD PITTSBURGH, PA 15212",3,0,3,0,0,0,2015,7,1,Marshall-Shadeland,1,27,42003271500,1,1,1-14,40.4717951395979,-80.0270291384735
294,"JACKSON ST & CASANOVA WAY PITTSBURGH, PA 15206",1,0,1,0,0,0,2015,7,2,Highland Park,7,11,42003110200,2,5,3-9,40.4718839083334,-79.9227624130936
295,"1400 BLOCK CASEMENT ST PITTSBURGH, PA 15212",1,0,0,1,0,0,2015,7,2,Marshall-Shadeland,1,27,42003271500,1,1,1-14,40.4703820875276,-80.0320029791942
296,"100 BLOCK ROBERTS ST PITTSBURGH, PA 15219",1,0,1,0,0,0,2015,7,2,Crawford-Roberts,6,3,42003030500,3,2,2-1,40.4418283270984,-79.982998578919
297,"1100 BLOCK BRABEC ST PITTSBURGH, PA 15212",1,0,1,0,0,0,2015,7,2,Troy Hill,1,24,42003240600,1,1,1-2,40.4585370614614,-79.9920340143178
298,"7400 BLOCK RACE ST PITTSBURGH, PA 15208",3,0,2,1,0,0,2015,7,2,Homewood North,9,13,42003130200,2,5,3-17,40.4576386922227,-79.891210648546
299,"1200 BLOCK W NORTH AVE PITTSBURGH, PA 15233",1,0,1,0,0,0,2015,7,3,Manchester,6,21,42003210700,1,1,1-8,40.4528562692902,-80.0223229006823
300,"<100 BLOCK NATCHEZ ST PITTSBURGH, PA 15211",1,0,0,1,0,0,2015,7,3,Mount Washington,2,19,42003191400,5,3,4-27,40.4291036073664,-80.0090754118307
301,"200 BLOCK DUNSEITH ST PITTSBURGH, PA 15213",1,0,1,0,0,0,2015,7,3,West Oakland,6,4,42003040200,3,4,2-10,40.4404618937456,-79.9648851008813
302,"1000 BLOCK LAWNDALE ST PITTSBURGH, PA 15221",1,0,1,0,0,0,2015,7,3,Homewood North,9,13,42003130100,2,5,3-17,40.4557800518,-79.8816832769871
303,"1500 BLOCK ALTON ST PITTSBURGH, PA 15216",1,0,1,0,0,0,2015,7,3,Beechview,4,19,42003191600,5,6,4-28,40.4119210949843,-80.0212400542457
304,"500 BLOCK CHAUTAUQUA ST PITTSBURGH, PA 15214",1,0,1,0,0,0,2015,7,4,Perry South,6,26,42003261400,1,1,1-12,40.4652049157821,-80.0152187444409
305,"PERRYSVILLE AVE & N CHARLES ST PITTSBURGH, PA 15214",1,0,1,0,0,0,2015,7,4,Perry South,6,26,42003261400,1,1,1-23,40.4710138335634,-80.0086016916314
306,"2400 BLOCK SALISBURY ST PITTSBURGH, PA 15210",1,0,1,0,0,0,2015,7,4,South Side Slopes,3,16,42003160800,3,3,4-22,40.4187941355962,-79.9726355163284
307,"1000 BLOCK THEONA ST PITTSBURGH, PA 15210",1,0,0,0,1,0,2015,7,4,Carrick,4,29,42003290200,3,3,4-12,40.4059538329255,-79.9866880629447
308,"6700 BLOCK REYNOLDS ST PITTSBURGH, PA 15206",2,0,1,1,0,0,2015,7,4,Point Breeze,8,14,42003140400,3,4,2-17,40.4519896579784,-79.9149239760373
309,"100 BLOCK CLIMAX ST PITTSBURGH, PA 15210",3,1,1,1,0,0,2015,7,4,,,,,,3,,,
310,"200 BLOCK PARKFIELD ST PITTSBURGH, PA 15210",1,0,0,0,0,1,2015,7,4,Carrick,4,29,42003290100,3,3,4-23,40.3920002697888,-79.9904142433744
311,"5400 BLOCK PANAMA WAY PITTSBURGH, PA 15224",1,0,1,0,0,0,2015,7,4,,,,,,5,,,
312,"200 BLOCK JUCUNDA ST PITTSBURGH, PA 15210",1,0,1,0,0,0,2015,7,5,Knoxville,3,30,42003300100,5,3,4-6,40.417190555006,-79.9910522325694
313,"LARIMER AVE & ORPHAN ST PITTSBURGH, PA 15206",1,0,0,1,0,0,2015,7,5,Larimer,9,12,42003120400,2,5,3-12,40.466902399666,-79.9104142601687
314,"1100 BLOCK BUENTE ST PITTSBURGH, PA 15212",1,0,0,0,0,1,2015,7,5,Spring Hill-City View,1,26,42003262000,1,1,1-11,40.4665798716603,-79.9955738421156
315,"2900 BLOCK SHADELAND AVE PITTSBURGH, PA 15212",1,0,1,0,0,0,2015,7,5,Marshall-Shadeland,1,27,42003271500,1,1,1-14,40.4707029348676,-80.0304048905528
316,"MEMORY LN & WHITE HILL DR PITTSBURGH, PA 15219",1,0,1,0,0,0,2015,7,5,Bedford Dwellings,6,5,42003050900,3,2,2-1,40.4483240803432,-79.980534095399
317,"400 BLOCK IVORY AVE PITTSBURGH, PA 15214",2,0,2,0,0,0,2015,7,5,Summer Hill,1,26,42003261200,1,1,1-15,40.4963487705899,-80.008715405146
318,"COLUMBO ST & N NEGLEY AVE PITTSBURGH, PA 15206",1,0,1,0,0,0,2015,7,5,East Liberty,9,11,42003111300,2,5,3-8,40.4681354397624,-79.9278633604693
319,"1300 BLOCK FIRTH ST PITTSBURGH, PA 15212",1,0,1,0,0,0,2015,7,5,Spring Garden,1,24,42003241200,1,1,1-24,40.4617331859854,-79.988599212347
320,"500 BLOCK LINCOLN AVE PITTSBURGH, PA 15206",1,0,1,0,0,0,2015,7,5,Larimer,9,12,42003120800,2,5,3-12,40.4610662679211,-79.9097548380336
321,"400 BLOCK FLOWERS AVE PITTSBURGH, PA 15207",1,0,0,1,0,0,2015,7,5,Hazelwood,5,15,42003562300,3,4,2-13,40.4121131857322,-79.9379790810112
322,"400 BLOCK PENFORT ST PITTSBURGH, PA 15214",1,0,1,0,0,0,2015,7,5,,,,,,1,,,
323,"7200 BLOCK JOSHUA ST PITTSBURGH, PA 15206",1,0,1,0,0,0,2015,7,5,Lincoln-Lemington-Belmar,9,12,42003561900,2,5,3-18,40.4704607965317,-79.8928037587996
324,"100 BLOCK PARKFIELD ST PITTSBURGH, PA 15210",1,0,0,0,1,0,2015,7,6,Carrick,4,29,42003290400,3,3,4-23,40.3913062841892,-79.9873681392311
325,"900 BLOCK SMITHTON AVE PITTSBURGH, PA 15212",1,0,1,0,0,0,2015,7,6,Marshall-Shadeland,1,27,42003271500,1,1,1-14,40.4751333954167,-80.0236171826162
326,"FRANKSTOWN AVE & BRUSHTON AVE PITTSBURGH, PA 15221",1,0,1,0,0,0,2015,7,6,Homewood South,9,13,42003130400,2,5,3-17,40.4555344380276,-79.8880963867104
327,"FRANKSTOWN AVE & N HOMEWOOD AVE PITTSBURGH, PA 15208",1,0,1,0,0,0,2015,7,6,Homewood South,9,13,42003130300,2,5,3-17,40.457404655664,-79.8963011488784
328,"300 BLOCK EAST OHIO ST PITTSBURGH, PA 15212",1,0,1,0,0,0,2015,8,0,,,,42003563900,,1,,40.4125315408834,-79.8427960425285
329,"200 BLOCK CHESTER AVE PITTSBURGH, PA 15214",1,0,0,1,0,0,2015,8,0,Perry South,6,26,42003261400,1,1,1-12,40.467053730986,-80.0114246667325
330,"200 BLOCK CHESTER AVE PITTSBURGH, PA 15214",2,0,2,0,0,0,2015,8,0,Perry South,6,26,42003261400,1,1,1-12,40.467053730986,-80.0114246667325
331,"5800 BLOCK EAST LIBERTY BLVD PITTSBURGH, PA 15206",1,0,1,0,0,0,2015,8,0,East Liberty,9,11,42003111300,2,5,3-8,40.4667740769391,-79.9252435226896
332,"500 BLOCK CORA ST PITTSBURGH, PA 15221",1,0,1,0,0,0,2015,8,1,Homewood South,9,13,42003130400,2,5,3-17,40.4503942725611,-79.887811539929
333,"7000 BLOCK HERMITAGE ST PITTSBURGH, PA 15208",1,0,1,0,0,0,2015,8,1,Homewood North,9,13,42003130100,2,5,3-18,40.4612785483683,-79.899994646474
334,"1800 BLOCK LOWRIE ST PITTSBURGH, PA 15212",1,0,1,0,0,0,2015,8,1,Troy Hill,1,24,42003240600,1,1,1-2,40.4647748878388,-79.9820187280316
335,"BLOCK 279 PKWYN PITTSBURGH, PA 15212",1,1,0,0,0,0,2015,8,1,,,,,,1,,,
336,"1000 BLOCK 5TH AVE PITTSBURGH, PA 15219",1,0,1,0,0,0,2015,8,1,Bluff,6,1,42003010300,3,2,2-4,40.4385727798308,-79.9908396644848
337,"6800 BLOCK HAMILTON AVE PITTSBURGH, PA 15208",1,0,1,0,0,0,2015,8,1,Homewood West,9,12,42003120700,2,5,3-17,40.4567041151292,-79.9066568305834
338,"7100 BLOCK UPLAND ST PITTSBURGH, PA 15208",1,0,0,0,0,1,2015,8,1,Homewood North,9,13,42003130100,2,5,3-18,40.4626173366275,-79.8973869919297
339,"BUENTE ST & RHINE ST PITTSBURGH, PA 15212",1,0,0,1,0,0,2015,8,1,Spring Hill-City View,1,26,42003262000,1,1,1-11,40.4663606463832,-79.9938114415761
340,"700 BLOCK ANAHEIM ST PITTSBURGH, PA 15219",1,0,0,1,0,0,2015,8,1,Upper Hill,6,5,42003050600,3,2,2-22,40.4526255342625,-79.9631641346142
341,"500 BLOCK MORGAN ST PITTSBURGH, PA 15219",1,0,1,0,0,0,2015,8,2,,,,,,2,,,
342,"1400 BLOCK CLOVER ST PITTSBURGH, PA 15203",1,0,1,0,0,0,2015,8,2,,,,,,3,,,
343,"1300 BLOCK FERRIS CT PITTSBURGH, PA 15221",1,0,1,0,0,0,2015,8,2,Homewood North,9,13,42003130100,2,5,3-17,40.4595856873816,-79.8876404038453
344,"1600 BLOCK HAWTHORNE ST PITTSBURGH, PA 15206",1,0,0,1,0,0,2015,8,2,Stanton Heights,7,10,42003101800,2,5,3-7,40.4864105982458,-79.9327361577532
345,"200 BLOCK JUCUNDA ST PITTSBURGH, PA 15210",1,0,0,0,1,0,2015,8,3,Knoxville,3,30,42003300100,5,3,4-6,40.417190555006,-79.9910522325694
346,"AINSWORTH ST & MARLOW ST PITTSBURGH, PA 15220",1,0,0,0,0,1,2015,8,3,Elliott,2,20,42003562600,5,6,1-17,40.4436476060422,-80.0389571894863
347,"3200 BLOCK CENTRAL AVE PITTSBURGH, PA 15212",1,0,0,0,1,0,2015,8,3,Marshall-Shadeland,1,27,42003271500,1,1,1-14,40.4752511144187,-80.0273883588974
348,"200 BLOCK ELMORE ST PITTSBURGH, PA 15219",1,0,1,0,0,0,2015,8,3,Terrace Village,6,5,42003051100,3,2,2-1,40.4418354617292,-79.9754116022702
349,"600 BLOCK N SHERIDEN AVE PITTSBURGH, PA 15206",1,0,0,0,0,1,2015,8,3,East Liberty,9,11,42003111300,2,5,3-8,40.4667827000029,-79.9201162959431
350,"1200 BLOCK ARNOLD ST PITTSBURGH, PA 15220",3,0,3,0,0,0,2015,8,3,Crafton Heights,2,20,42003562600,5,6,1-17,40.4420815646514,-80.0451288834818
351,"5400 BLOCK BROAD ST PITTSBURGH, PA 15206",1,0,1,0,0,0,2015,8,3,Garfield,9,11,42003111400,2,5,3-4,40.4654201034803,-79.9358071613606
352,"2600 BLOCK PERRYSVILLE AVE PITTSBURGH, PA 15214",1,0,1,0,0,0,2015,8,3,Perry South,6,26,42003261500,1,1,1-23,40.4711827668287,-80.0084511227419
353,"100 BLOCK E CARSON ST PITTSBURGH, PA 15210",1,0,1,0,0,0,2015,8,3,South Side Flats,3,17,42003170200,3,3,4-24,40.4285684808581,-79.9876493712047
354,"6600 BLOCK HAMILTON AVE PITTSBURGH, PA 15206",1,0,1,0,0,0,2015,8,3,Larimer,9,12,42003120800,2,5,3-10,40.457698841715,-79.9107607308275
355,"<100 BLOCK BLANFORD CT PITTSBURGH, PA 15206",1,0,1,0,0,0,2015,8,3,,,,,,5,,,
356,"3500 BLOCK SHADELAND AVE PITTSBURGH, PA 15212",1,0,1,0,0,0,2015,8,3,Brighton Heights,1,27,42003270300,1,1,1-14,40.4793934957672,-80.034172514775
357,"300 BLOCK N ST CLAIR ST PITTSBURGH, PA 15206",1,0,1,0,0,0,2015,8,4,East Liberty,7,8,42003111500,2,5,3-23,40.4599815589684,-79.9308436633357
358,"2900 BLOCK SHADELAND AVE PITTSBURGH, PA 15212",2,0,2,0,0,0,2015,8,4,Marshall-Shadeland,1,27,42003271500,1,1,1-14,40.4707029348676,-80.0304048905528
359,"300 BLOCK CEDAR AVE PITTSBURGH, PA 15212",1,0,1,0,0,0,2015,8,4,East Allegheny,1,22,42003563200,1,1,1-20,40.4508935599436,-80.0009078039902
360,"6400 BLOCK BROAD ST PITTSBURGH, PA 15206",1,0,0,1,0,0,2015,8,4,,,,,,5,,,
361,"7300 BLOCK RACE ST PITTSBURGH, PA 15208",1,0,1,0,0,0,2015,8,4,Homewood North,9,13,42003130200,2,5,3-17,40.4581323896529,-79.8935067893674
362,"2ND AVE & HAZELWOOD AVE PITTSBURGH, PA 15207",1,0,1,0,0,0,2015,8,5,Hazelwood,5,15,42003562900,3,4,2-13,40.4113206355458,-79.9447270333924
363,"3100 BLOCK CORDELL PL PITTSBURGH, PA 15203",2,0,2,0,0,0,2015,8,5,Arlington Heights,3,16,42003561600,3,3,4-8,40.4177171713236,-79.963452973864
364,"300 BLOCK S MURTLAND ST PITTSBURGH, PA 15208",1,0,0,1,0,0,2015,8,5,Point Breeze,8,14,42003140600,3,4,3-14,40.4488441699492,-79.9073802670603
365,"1800 BLOCK MAPLEWOOD AVE PITTSBURGH, PA 15221",5,0,4,1,0,0,2015,8,5,East Hills,9,13,42003130600,2,5,3-19,40.4513378893445,-79.8776874289506
366,"200 BLOCK FLOWERS AVE PITTSBURGH, PA 15207",1,0,1,0,0,0,2015,8,5,Hazelwood,5,15,42003562300,3,4,2-13,40.4101566962203,-79.9422715361284
367,"1900 BLOCK 5TH AVE PITTSBURGH, PA 15219",1,0,1,0,0,0,2015,8,5,Westwood,2,28,42003563100,5,6,1-18,40.4359838396036,-80.0520420475639
368,"5400 BLOCK 2ND AVE PITTSBURGH, PA 15207",1,0,1,0,0,0,2015,8,6,Hazelwood,5,15,42003562300,3,4,2-13,40.4025863966787,-79.9419544748119
369,"HAMILTON AVE & STERRETT ST PITTSBURGH, PA 15208",1,0,1,0,0,0,2015,8,6,Homewood South,9,13,42003130300,2,5,3-17,40.4541130332132,-79.8952339779732
370,"7100 BLOCK IDLEWILD ST PITTSBURGH, PA 15208",1,0,1,0,0,0,2015,8,6,Homewood North,9,13,42003130200,2,5,3-17,40.4586745531367,-79.8981961366599
371,"PAULSON AVE & DEAN ST PITTSBURGH, PA 15206",1,0,0,1,0,0,2015,8,6,Lincoln-Lemington-Belmar,9,12,42003120300,2,5,3-15,40.4679818160463,-79.9035541027441
372,"800 BLOCK GEARING AVE PITTSBURGH, PA 15210",1,0,0,0,1,0,2015,8,6,Beltzhoover,3,18,42003562400,5,3,4-16,40.415713124936,-80.0051268500841
373,"100 BLOCK HAWKINS ST PITTSBURGH, PA 15214",1,0,1,0,0,0,2015,8,6,,,,,,1,,,
374,"400 BLOCK EAST COMMONS PITTSBURGH, PA 15212",1,0,1,0,0,0,2015,8,6,Allegheny Center,1,22,42003562700,1,1,1-6,40.4501620540203,-80.0057810574071
375,"700 BLOCK JOHNSTON AVE PITTSBURGH, PA 15207",1,0,1,0,0,0,2015,8,6,Glen Hazel,5,15,42003562300,3,4,2-13,40.405805081466,-79.933455881494
376,"6500 BLOCK HAMILTON AVE PITTSBURGH, PA 15206",1,0,1,0,0,0,2015,8,6,Larimer,9,12,42003120800,2,5,3-10,40.4589924478051,-79.9142657236002
377,"JOHNSTON AVE & DESDEMONA AVE PITTSBURGH, PA 15217",2,0,2,0,0,0,2015,8,6,Squirrel Hill South,5,15,42003141400,3,4,2-12,40.4118124875535,-79.9227772600246
378,"100 BLOCK S 21ST ST PITTSBURGH, PA 15203",1,0,1,0,0,0,2015,9,0,,,,42003484600,,3,,40.3979112359223,-79.9030140162091
379,"7300 BLOCK RACE ST PITTSBURGH, PA 15208",1,0,0,1,0,0,2015,9,0,Homewood North,9,13,42003130200,2,5,3-17,40.4581323896529,-79.8935067893674
380,"BLOCK 10TH STREET TUNLS PITTSBURGH, PA 15222",1,0,1,0,0,0,2015,9,0,,,,,,2,,,
381,"1200 BLOCK ISLAND AVE PITTSBURGH, PA 15212",1,0,1,0,0,0,2015,9,0,California-Kirkbride,1,27,42003250700,1,1,1-9,40.4632186931824,-80.0256085395011
382,"1000 BLOCK ROTHPLETZ ST PITTSBURGH, PA 15212",1,0,1,0,0,0,2015,9,0,Marshall-Shadeland,1,27,42003271500,1,1,1-14,40.4763895600209,-80.0233996402339
383,"800 BLOCK N LANG AVE PITTSBURGH, PA 15208",1,0,0,1,0,0,2015,9,0,Homewood South,9,13,42003130300,2,5,3-17,40.457030304493,-79.8986491084642
384,"PARKHURST ST & LORAINE ST PITTSBURGH, PA 15212",1,0,1,0,0,0,2015,9,0,Central Northside,1,22,42003220600,1,1,1-6,40.4568814944927,-80.0056821953426
385,"200 BLOCK GRASMERE ST PITTSBURGH, PA 15205",1,0,0,0,1,0,2015,9,0,,,,,,6,,,
386,"S 15TH ST & ROLAND ST PITTSBURGH, PA 15203",1,0,1,0,0,0,2015,9,0,South Side Flats,3,17,42003170200,3,3,4-24,40.4285634613338,-79.9834385131345
387,"1200 BLOCK THELMA ST PITTSBURGH, PA 15212",1,0,1,0,0,0,2015,9,1,Marshall-Shadeland,1,27,42003271500,1,1,1-14,40.4689872782724,-80.0271774539283
388,"1000 BLOCK WOODLOW ST PITTSBURGH, PA 15205",1,0,1,0,0,0,2015,9,1,Crafton Heights,2,28,42003281400,5,6,1-17,40.4458030664507,-80.0523889710639
389,"100 BLOCK E 8TH AVE HOMESTEAD , PA 15102",11,0,5,3,3,0,2015,9,1,,,,42003483800,,OSC,,40.4059318891126,-79.9118297649661
390,"WYLIE AVE & CHAUNCEY ST PITTSBURGH, PA 15219",1,0,0,1,0,0,2015,9,2,Middle Hill,6,5,42003050100,3,2,2-5,40.4474157590177,-79.9733376323545
391,"600 BLOCK ROSEDALE ST PITTSBURGH, PA 15221",1,0,1,0,0,0,2015,9,2,,,,,,5,,,
392,"5000 BLOCK STEELE CT PITTSBURGH, PA 15207",1,0,0,0,1,0,2015,9,2,Hazelwood,5,15,42003562300,3,4,2-13,40.4095132684597,-79.9396023727145
393,"1600 BLOCK SANDUSKY CT PITTSBURGH, PA 15212",1,0,1,0,0,0,2015,9,2,Central Northside,6,25,42003220600,1,1,1-10,40.4589236267468,-80.0055084339585
394,"FULTON ST & STEDMAN ST PITTSBURGH, PA 15233",1,0,1,0,0,0,2015,9,2,Manchester,6,21,42003210700,1,1,1-8,40.4538786427516,-80.0246087871495
395,"100 BLOCK LACLEDE ST PITTSBURGH, PA 15211",1,0,1,0,0,0,2015,9,2,Mount Washington,3,18,42003180700,5,3,4-5,40.4238075700052,-80.003152486922
396,"DE RUAD ST & WYANDOTTE ST PITTSBURGH, PA 15219",2,0,2,0,0,0,2015,9,2,,,,,,4,,,
397,"CHAUNCEY DR & BEDFORD AVE PITTSBURGH, PA 15219",1,0,0,1,0,0,2015,9,2,Bedford Dwellings,6,5,42003050900,3,2,2-5,40.4498121771878,-79.9746234202074
398,"7300 BLOCK RACE ST PITTSBURGH, PA 15208",1,0,1,0,0,0,2015,9,2,Homewood North,9,13,42003130200,2,5,3-17,40.4581323896529,-79.8935067893674
399,"900 BLOCK WOODLOW ST PITTSBURGH, PA 15205",1,0,1,0,0,0,2015,9,2,Crafton Heights,2,28,42003281400,5,6,1-17,40.4458191418835,-80.0523506900023
400,"FRANKSTOWN AVE & N HOMEWOOD AVE PITTSBURGH, PA 15208",1,0,1,0,0,0,2015,9,2,Homewood South,9,13,42003130300,2,5,3-17,40.457404655664,-79.8963011488784
401,"400 BLOCK WEST COMMONS PITTSBURGH, PA 15212",1,0,0,1,0,0,2015,9,2,Allegheny Center,1,22,42003562700,1,1,1-6,40.4501620540203,-80.0057810574071
402,"500 BLOCK SMITHFIELD ST PITTSBURGH, PA 15222",1,0,1,0,0,0,2015,9,2,Central Business District,6,2,42003020100,6,2,1-4,40.440340041992,-79.9981194717119
403,"100 BLOCK 11TH ST PITTSBURGH, PA 15222",1,0,1,0,0,0,2015,9,2,South Side Flats,3,17,42003170200,3,3,4-24,40.4274625663979,-79.9876285013227
404,"5300 BLOCK CORNWALL ST PITTSBURGH, PA 15224",1,0,1,0,0,0,2015,9,3,Garfield,9,10,42003101600,2,5,3-4,40.4701056365126,-79.9376644472082
405,"1800 BLOCK BEDFORD AVE PITTSBURGH, PA 15219",1,0,1,0,0,0,2015,9,3,Crawford-Roberts,6,3,42003030500,3,2,2-1,40.4452344372932,-79.9854164174093
406,"2600 BLOCK PERRYSVILLE AVE PITTSBURGH, PA 15212",1,0,1,0,0,0,2015,9,3,Perry South,6,26,42003261500,1,1,1-23,40.4711827668287,-80.0084511227419
407,"1200 BLOCK ISLAND AVE PITTSBURGH, PA 15212",1,0,1,0,0,0,2015,9,3,California-Kirkbride,1,27,42003250700,1,1,1-9,40.4632186931824,-80.0256085395011
408,"3700 BLOCK OHIO RIVER BLVD PITTSBURGH, PA 15212",1,0,1,0,0,0,2015,9,3,,,,,,1,,,
409,"3400 BLOCK PORTOLA AVE PITTSBURGH, PA 15214",1,0,1,0,0,0,2015,9,3,Perry North,1,26,42003260700,1,1,1-15,40.4820334166321,-80.0121154564921
410,"3600 BLOCK CALIFORNIA AVE PITTSBURGH, PA 15212",1,0,1,0,0,0,2015,9,3,Brighton Heights,1,27,42003270100,1,1,1-14,40.4804207439451,-80.0408607014066
411,"SHADELAND AVE & CASEMENT ST PITTSBURGH, PA 15212",2,0,2,0,0,0,2015,9,3,Marshall-Shadeland,1,27,42003271500,1,1,1-14,40.4706351812628,-80.0305825495495
412,"100 BLOCK RHINE PL PITTSBURGH, PA 15212",1,0,1,0,0,0,2015,9,3,Spring Hill-City View,1,24,42003262000,1,1,1-24,40.4653596489546,-79.9920418451489
413,"1800 BLOCK FAHNESTOCK ST PITTSBURGH, PA 15221",1,0,1,0,0,0,2015,9,4,,,,,,5,,,
414,"4900 BLOCK GERTRUDE ST PITTSBURGH, PA 15207",1,0,1,0,0,0,2015,9,4,Hazelwood,5,15,42003562300,3,4,2-13,40.4102914998156,-79.9426106154375
415,"800 BLOCK GRAY ST MCKEES ROCKS, PA 15136",1,0,1,0,0,0,2015,9,4,,,,42003464400,,OSC,,40.4686563044245,-80.0622284260811
416,"1300 BLOCK JEFFERS ST PITTSBURGH, PA 15204",1,0,0,1,0,0,2015,9,4,Sheraden,2,20,42003202200,5,6,1-16,40.4538670230583,-80.0650878274151
417,"200 BLOCK BURROWS ST PITTSBURGH, PA 15213",1,0,1,0,0,0,2015,9,4,Terrace Village,6,4,42003040200,3,2,2-10,40.4385720822129,-79.9680706037299
418,"HOLYOKE ST & CHAUTAUQUA ST PITTSBURGH, PA 15214",1,0,1,0,0,0,2015,9,4,Perry South,6,26,42003261400,1,1,1-12,40.4654196354318,-80.0141540492968
419,"1500 BLOCK CRUCIBLE ST PITTSBURGH, PA 15220",1,0,0,1,0,0,2015,9,4,,,,,,6,,,
420,"N LANG AVE & RACE ST PITTSBURGH, PA 15208",1,0,1,0,0,0,2015,9,4,Homewood North,9,13,42003130100,2,5,3-17,40.4593381730243,-79.897975828144
421,"LARIMER AVE & OMEGA PL PITTSBURGH, PA 15206",1,0,1,0,0,0,2015,9,4,,,,,,5,,,
422,"2000 BLOCK 5TH AVE PITTSBURGH, PA 15219",1,0,1,0,0,0,2015,9,4,Bluff,6,1,42003010300,3,2,2-1,40.4380106868591,-79.9775329065649
423,"2100 BLOCK PARK HILL DR PITTSBURGH, PA 15221",1,0,0,1,0,0,2015,9,5,East Hills,9,13,42003130600,2,5,3-19,40.4529606359974,-79.8740246842376
424,"1900 BLOCK BROWNSVILLE RD PITTSBURGH, PA 15210",1,0,0,1,0,0,2015,9,5,Carrick,4,29,42003290100,3,3,4-12,40.3960603966567,-79.9875088066487
425,"1200 BLOCK BROOKLINE BLVD PITTSBURGH, PA 15226",1,0,1,0,0,0,2015,9,5,Brookline,4,19,42003191800,5,6,4-26,40.3919435731859,-80.0129939178464
426,"N EUCLID AVE & WELLESLEY AVE PITTSBURGH, PA 15206",1,0,1,0,0,0,2015,9,5,Highland Park,7,11,42003110200,2,5,3-9,40.4730519958637,-79.9214607266117
427,"2300 BLOCK BROWNSVILLE RD PITTSBURGH, PA 15210",1,0,1,0,0,0,2015,9,5,Carrick,4,29,42003290400,3,3,4-12,40.3890572692795,-79.9855231716653
428,"900 BLOCK FAIRDALE ST PITTSBURGH, PA 15204",1,0,0,1,0,0,2015,9,5,Sheraden,2,20,42003562500,5,6,1-16,40.4559885869433,-80.0604999315605
429,"200 BLOCK ROBINSON ST PITTSBURGH, PA 15213",1,0,1,0,0,0,2015,9,5,West Oakland,6,4,42003040200,3,4,2-10,40.4404876880004,-79.9653371230003
430,"1600 BLOCK NOBLES LN PITTSBURGH, PA 15210",1,0,1,0,0,0,2015,9,5,Carrick,4,29,42003290100,3,3,4-23,40.3972664171686,-79.9977545371464
431,"500 BLOCK SMITHFIELD ST PITTSBURGH, PA 15222",1,0,1,0,0,0,2015,9,5,Central Business District,6,2,42003020100,6,2,1-4,40.440340041992,-79.9981194717119
432,"2800 BLOCK MARY ST PITTSBURGH, PA 15203",3,0,2,0,0,1,2015,9,5,South Side Slopes,3,16,42003160800,3,3,4-24,40.4242691965337,-79.9683636913634
433,"HEMLOCK ST & HAZLIP WAY PITTSBURGH, PA 15212",1,0,1,0,0,0,2015,9,5,Central Northside,1,25,42003220600,1,1,1-6,40.4573804259888,-80.0067440596548
434,"2100 BLOCK N CHARLES ST PITTSBURGH, PA 15212",1,0,1,0,0,0,2015,9,6,Perry South,6,25,42003261400,1,1,1-12,40.4625474355026,-80.0186497524467
435,"1700 BLOCK BELLEAU DR PITTSBURGH, PA 15212",1,0,1,0,0,0,2015,9,6,Fineview,6,25,42003250900,1,1,1-10,40.460310552493,-80.0069833937371
436,"FRANKSTOWN AVE & GERRITT ST PITTSBURGH, PA 15208",1,0,1,0,0,0,2015,9,6,Homewood West,9,12,42003120700,2,5,3-17,40.4585906279925,-79.9021461549789
437,"7600 BLOCK SUSQUEHANNA ST PITTSBURGH, PA 15221",1,0,1,0,0,0,2015,9,6,Homewood South,9,13,42003130400,2,5,3-17,40.4510080914673,-79.8921614763654
438,"2100 BLOCK SARAH ST PITTSBURGH, PA 15203",2,2,0,0,0,0,2015,9,6,South Side Flats,3,16,42003160900,3,3,4-24,40.4274305580602,-79.9761229323826
439,"900 BLOCK GREENFIELD AVE PITTSBURGH, PA 15217",1,0,0,1,0,0,2015,9,6,Greenfield,5,15,42003151700,3,4,2-12,40.4241980909446,-79.9333422903437
440,"2500 BLOCK WEST LIBERTY AVE PITTSBURGH, PA 15226",1,0,0,1,0,0,2015,10,0,Beechview,4,19,42003192000,5,6,4-26,40.3991926113208,-80.0254967571288
441,"EAST LIBERTY BLVD & LARIMER AVE PITTSBURGH, PA 15206",1,0,1,0,0,0,2015,10,0,East Liberty,9,11,42003111500,2,5,3-10,40.4634008054884,-79.9174920584431
442,"1500 BLOCK BREINING ST PITTSBURGH, PA 15226",1,0,1,0,0,0,2015,10,0,Brookline,4,32,42003320600,5,6,4-25,40.3890871043277,-80.0076016632217
443,"<100 BLOCK MILTENBERGER ST PITTSBURGH, PA 15219",1,0,1,0,0,0,2015,10,0,Bluff,6,1,42003010300,3,2,2-1,40.4359683714092,-79.9815389848477
444,"800 BLOCK BRUSHTON AVE PITTSBURGH, PA 15221",1,0,1,0,0,0,2015,10,1,Homewood South,9,13,42003130400,2,5,3-17,40.4546298092284,-79.8884409987312
445,"BLOCK CENTRE AVE PITTSBURGH, PA 15219",1,0,1,0,0,0,2015,10,1,,,,,,2,,,
446,"2900 BLOCK PENN AVE PITTSBURGH, PA 15222",1,0,1,0,0,0,2015,10,1,Strip District,7,6,42003020300,6,2,3-2,40.4578573471455,-79.9741687933494
447,"CORNWALL ST & N AIKEN AVE PITTSBURGH, PA 15224",1,0,1,0,0,0,2015,10,1,Garfield,9,11,42003101600,2,5,3-4,40.4691053103746,-79.9337563075778
448,"5800 BLOCK FORBES AVE PITTSBURGH, PA 15217",1,0,1,0,0,0,2015,10,1,Squirrel Hill South,5,14,42003140800,3,4,2-18,40.4379109890663,-79.9228071341134
449,"N BRADDOCK AVE & HAMILTON AVE PITTSBURGH, PA 15208",1,0,1,0,0,0,2015,10,1,Homewood South,9,13,42003130400,2,5,3-17,40.4531728383208,-79.8911118301932
450,"SHADELAND AVE & CASEMENT ST PITTSBURGH, PA 15212",1,0,0,1,0,0,2015,10,2,Marshall-Shadeland,1,27,42003271500,1,1,1-14,40.4706351812628,-80.0305825495495
451,"5900 BLOCK NORTHUMBERLAND ST PITTSBURGH, PA 15217",3,0,1,2,0,0,2015,10,2,Squirrel Hill North,8,14,42003140300,3,4,2-18,40.4418203928528,-79.9198682496475
452,"IRVINE ST & GREENFIELD AVE PITTSBURGH, PA 15207",1,0,0,1,0,0,2015,10,2,Hazelwood,5,15,42003562900,3,4,2-12,40.4249244980469,-79.9520392698491
453,"300 BLOCK KAMBACH ST PITTSBURGH, PA 15211",1,0,1,0,0,0,2015,10,2,Mount Washington,3,18,42003180700,5,3,4-5,40.4262881004801,-80.0025802950583
454,"KIRKPATRICK ST & LA PLACE ST PITTSBURGH, PA 15219",1,0,1,0,0,0,2015,10,2,Middle Hill,6,5,42003050100,3,2,2-1,40.4447969092993,-79.9758686878286
455,"LINCOLN AVE & TENNIS WAY PITTSBURGH, PA 15206",1,0,1,0,0,0,2015,10,2,Lincoln-Lemington-Belmar,9,12,42003120300,2,5,3-15,40.4633822054908,-79.903980611395
456,"40TH ST & BUTLER ST PITTSBURGH, PA 15201",2,0,2,0,0,0,2015,10,2,Lower Lawrenceville,7,9,42003060300,2,2,3-3,40.4687151264331,-79.9622939866172
457,"FINLAND ST & MILWAUKEE ST PITTSBURGH, PA 15219",1,0,1,0,0,0,2015,10,2,Upper Hill,6,5,42003050600,3,2,2-22,40.4560675160923,-79.9587886234973
458,"2100 BLOCK PARK HILL DR PITTSBURGH, PA 15221",1,0,1,0,0,0,2015,10,2,East Hills,9,13,42003130600,2,5,3-19,40.4529606359974,-79.8740246842376
459,"1700 BLOCK DUFFIELD ST PITTSBURGH, PA 15206",1,0,1,0,0,0,2015,10,2,Morningside,7,10,42003101400,2,5,3-7,40.4858946731268,-79.9292283459543
460,"1200 BLOCK SANDUSKY STN PITTSBURGH, PA 15212",3,0,2,0,1,0,2015,10,2,,,,,,1,,,
461,"2700 BLOCK LIBRARY RD PITTSBURGH, PA 15234",1,0,1,0,0,0,2015,10,2,Overbrook,4,32,42003320700,5,3,4-25,40.3784029983804,-80.0031161083009
462,"CORDELL PL & ARLINGTON AVE PITTSBURGH, PA 15203",1,0,1,0,0,0,2015,10,3,Arlington Heights,3,16,42003561600,3,3,4-8,40.4177085471524,-79.9634887319175
463,"<100 BLOCK SEINE WAY PITTSBURGH, PA 15213",2,0,1,0,1,0,2015,10,3,West Oakland,6,5,42003040200,3,4,2-10,40.4425634750395,-79.9667066116475
464,"2700 BLOCK ZEPHYR AVE PITTSBURGH, PA 15204",1,0,1,0,0,0,2015,10,3,Sheraden,2,20,42003562500,5,6,1-16,40.4530292535524,-80.0493591534742
465,"BLOCK RIVERFRONT PARK ST PITTSBURGH, PA",1,0,0,1,0,0,2015,10,3,,,,,,3,,,
466,"1300 BLOCK OAKRIDGE ST PITTSBURGH, PA 15226",1,0,1,0,0,0,2015,10,3,Brookline,4,19,42003191800,5,6,4-26,40.3913951118603,-80.010501225121
467,"FORT PITT BLVD & WOOD ST PITTSBURGH, PA 15222",1,0,1,0,0,0,2015,10,3,Central Business District,6,1,42003020100,6,2,1-4,40.4374116049533,-80.002628816283
468,"BROWNSVILLE RD & BAUSMAN ST PITTSBURGH, PA 15210",1,0,1,0,0,0,2015,10,3,Knoxville,,30,42003481000,5,3,4-7,40.4144422085343,-79.9880419114057
469,"4600 BLOCK LIBERTY AVE PITTSBURGH, PA 15224",2,0,2,0,0,0,2015,10,3,Bloomfield,7,8,42003080200,2,5,3-6,40.4624106947672,-79.9508853954945
470,"1300 BLOCK KIRSOPP AVE PITTSBURGH, PA 15220",1,0,1,0,0,0,2015,10,4,Banksville,2,20,42003202300,5,6,4-9,40.4124558677201,-80.0406247667482
471,"7100 BLOCK HERMITAGE ST PITTSBURGH, PA 15208",1,0,0,1,0,0,2015,10,4,Homewood North,9,13,42003130200,2,5,3-18,40.4607187563883,-79.897505025281
472,"1200 BLOCK JANCEY ST PITTSBURGH, PA 15206",16,14,2,0,0,0,2015,10,4,Morningside,7,10,42003101400,2,5,3-7,40.479435366814,-79.929506718835
473,"4400 BLOCK BROWNS HILL RD PITTSBURGH, PA 15217",1,0,0,1,0,0,2015,10,5,,,,,,4,,,
474,"MILLBRIDGE ST & E WARRINGTON AVE PITTSBURGH, PA 15210",1,0,1,0,0,0,2015,10,5,Allentown,3,18,42003180300,5,3,4-21,40.4217799960059,-79.9958194884978
475,"2300 BLOCK ALMONT ST PITTSBURGH, PA 15210",1,0,1,0,0,0,2015,10,5,Carrick,4,29,42003290400,3,3,4-23,40.3879355152527,-79.9880966279042
476,"3500 BLOCK MILWAUKEE ST PITTSBURGH, PA 15219",1,0,1,0,0,0,2015,10,5,Upper Hill,6,5,42003050600,3,2,2-22,40.4547877689654,-79.9598757737962
477,"100 BLOCK RHINE PL PITTSBURGH, PA 15212",1,0,1,0,0,0,2015,10,5,Spring Hill-City View,1,24,42003262000,1,1,1-24,40.4653596489546,-79.9920418451489
478,"900 BLOCK JOHNSTON AVE PITTSBURGH, PA 15207",1,0,1,0,0,0,2015,10,5,Glen Hazel,5,15,42003562300,3,4,2-13,40.4063362289732,-79.9286344080454
479,"3400 BLOCK GASS AVE PITTSBURGH, PA 15212",3,0,1,0,2,0,2015,10,5,Brighton Heights,1,27,42003270300,1,1,1-14,40.4770743333993,-80.0346721574571
480,"1000 BLOCK ROSSELLE CT PITTSBURGH, PA 15207",1,0,1,0,0,0,2015,10,5,,,,,,4,,,
481,"200 BLOCK GROVE RD PITTSBURGH, PA 15147",1,0,1,0,0,0,2015,10,5,,,,,,OSC,,,
482,"1700 BLOCK CRUCIBLE ST PITTSBURGH, PA 15220",1,0,1,0,0,0,2015,10,5,Crafton Heights,2,28,42003281400,5,6,1-17,40.4468675313986,-80.0527503163184
483,"7300 BLOCK HAMILTON AVE PITTSBURGH, PA 15208",1,0,1,0,0,0,2015,10,6,Homewood South,9,13,42003130300,2,5,3-17,40.454024491261,-79.8956475808347
484,"600 BLOCK JOHNSTON AVE PITTSBURGH, PA 15207",1,0,1,0,0,0,2015,10,6,Glen Hazel,5,15,42003562300,3,4,2-13,40.4048738672012,-79.9349559482199
485,"2100 BLOCK STRAUBS LN PITTSBURGH, PA 15212",2,0,2,0,0,0,2015,10,6,Troy Hill,1,24,42003240600,1,1,1-2,40.4697377023389,-79.9794737264101
486,"ELMORE ST & REED ST PITTSBURGH, PA 15219",1,0,1,0,0,0,2015,10,6,Terrace Village,6,5,42003051100,3,2,2-1,40.4422899410943,-79.9783393462413
487,"7000 BLOCK CHURCHLAND ST PITTSBURGH, PA 15206",1,0,1,0,0,0,2015,10,6,Lincoln-Lemington-Belmar,9,12,42003561900,2,5,3-18,40.4718025027568,-79.8975069203771
488,"700 BLOCK WISTERIA AVE PITTSBURGH, PA 15228",1,0,0,0,1,0,2015,10,6,,,,,,OSC,,,
489,"HARTWELL ST & NOBLESTOWN RD PITTSBURGH, PA 15205",1,0,1,0,0,0,2015,10,6,,,,,,6,,,
490,"3400 BLOCK SIPE ST PITTSBURGH, PA 15212",1,0,1,0,0,0,2015,10,6,,,,,,1,,,
491,"6500 BLOCK HAMILTON AVE PITTSBURGH, PA 15206",1,0,1,0,0,0,2015,10,6,Larimer,9,12,42003120800,2,5,3-10,40.4589924478051,-79.9142657236002
492,"WOODRUFF ST & SAW MILL RUN BLVD PITTSBURGH, PA 15211",1,0,0,0,0,1,2015,11,0,Mount Washington,2,19,42003191100,5,3,4-1,40.4258728267517,-80.0199299522882
493,"DAMAS ST & HOMER ST PITTSBURGH, PA 15212",1,0,0,1,0,0,2015,11,0,Spring Hill-City View,1,24,42003262000,1,1,1-11,40.4654122675552,-79.9914591970155
494,"5TH AVE & S NEGLEY AVE PITTSBURGH, PA 15232",1,0,0,1,0,0,2015,11,0,Shadyside,8,14,42003070300,3,4,2-17,40.4498350451978,-79.9296495675179
495,"100 BLOCK ZARA ST PITTSBURGH, PA 15210",1,0,1,0,0,0,2015,11,0,Knoxville,3,30,42003300100,5,3,4-6,40.4159117365192,-79.9881453342414
496,"1500 BLOCK ROCKLAND AVE PITTSBURGH, PA 15216",1,0,1,0,0,0,2015,11,0,Beechview,4,19,42003191600,5,6,4-28,40.4120381923726,-80.0203678148169
497,"LINCOLN AVE & APPLE AVE PITTSBURGH, PA 15208",2,0,2,0,0,0,2015,11,1,Lincoln-Lemington-Belmar,9,12,42003130100,2,5,3-15,40.464508469583,-79.8996027850485
498,"1700 BLOCK JANET DR CASTLE SHANNON, PA 15236",1,0,0,0,1,0,2015,11,1,,,,42003476200,,OSC,,40.3581485921995,-80.0265254110525
499,"<100 BLOCK S 14TH ST PITTSBURGH, PA 15203",1,0,1,0,0,0,2015,11,1,South Side Flats,3,17,42003170200,3,3,4-24,40.4301093741885,-79.9841482405183
500,"BENNETT ST & HALE ST PITTSBURGH, PA 15221",1,0,1,0,0,0,2015,11,1,Homewood South,9,13,42003130400,2,5,3-17,40.4542320007818,-79.8868105120147
501,"600 BLOCK EAST OHIO ST PITTSBURGH, PA 15212",1,0,1,0,0,0,2015,11,2,East Allegheny,1,23,42003563200,1,1,1-6,40.4539777944947,-79.9989780720766
502,"1100 BLOCK HIGHWOOD ST PITTSBURGH, PA 15212",1,0,1,0,0,0,2015,11,2,Marshall-Shadeland,1,26,42003271500,1,1,1-9,40.4683522212454,-80.0252643858697
503,"1600 BLOCK WORTHINGTON ST PITTSBURGH, PA 15206",1,1,0,0,0,0,2015,11,2,Lincoln-Lemington-Belmar,9,12,42003561900,2,5,3-18,40.4683723873686,-79.8917006112731
504,"1400 BLOCK CHICAGO ST PITTSBURGH, PA 15214",1,0,1,0,0,0,2015,11,2,,,,,,1,,,
505,"1600 BLOCK SANDUSKY CT PITTSBURGH, PA 15212",1,0,0,1,0,0,2015,11,2,Central Northside,6,25,42003220600,1,1,1-10,40.4589236267468,-80.0055084339585
506,"2100 BLOCK E CARSON ST PITTSBURGH, PA 15203",1,0,1,0,0,0,2015,11,2,South Side Flats,3,16,42003160900,3,3,4-24,40.4283146103025,-79.9760719669211
507,"4100 BLOCK LYDIA ST PITTSBURGH, PA 15207",1,0,0,0,1,0,2015,11,3,Greenfield,5,15,42003151600,3,4,2-12,40.4241112370559,-79.9421815842345
508,"N MURTLAND ST & FOREST WAY PITTSBURGH, PA 15208",1,0,1,0,0,0,2015,11,3,Homewood West,9,12,42003120700,2,5,3-17,40.4589590619611,-79.9009392918156
509,"1000 BLOCK BRUSHTON AVE PITTSBURGH, PA 15221",1,0,1,0,0,0,2015,11,3,Homewood North,9,13,42003130100,2,5,3-17,40.4565467004881,-79.887729584877
510,"1400 BLOCK 5TH AVE PITTSBURGH, PA 15219",1,0,0,1,0,0,2015,11,3,Bluff,6,1,42003010300,3,2,2-4,40.4383779130496,-79.9863133607321
511,"300 BLOCK E WARRINGTON AVE PITTSBURGH, PA 15210",1,0,0,1,0,0,2015,11,3,Beltzhoover,3,18,42003562400,5,3,4-16,40.4209340242423,-80.0023196507148
512,"500 BLOCK EMLIN ST PITTSBURGH, PA 15212",1,0,1,0,0,0,2015,11,3,East Allegheny,1,23,42003563200,1,1,1-6,40.453886141513,-80.0006982037355
513,"7900 BLOCK INGLENOOK PL PITTSBURGH, PA 15221",1,0,1,0,0,0,2015,11,3,Homewood South,9,13,42003130400,2,5,3-17,40.4511436737594,-79.8857405982737
514,"S BRADDOCK AVE & PENN AVE PITTSBURGH, PA 15221",1,0,1,0,0,0,2015,11,4,Point Breeze,9,14,42003140600,3,4,3-14,40.4471406664877,-79.8951649869709
515,"HILL AVE & EVERETT ST WILKINSBURG, PA 15221",1,0,1,0,0,0,2015,11,5,,,,42003561500,,OSC,3-20,40.4423262588533,-79.872056278473
516,"1400 BLOCK EVANDALE RD PITTSBURGH, PA 15212",1,0,0,1,0,0,2015,11,5,Marshall-Shadeland,1,27,42003271500,1,1,1-14,40.4701727114909,-80.0320466240894
517,"GLEN MAWR ST & BUOY WAY PITTSBURGH, PA 15204",1,0,0,1,0,0,2015,11,5,Sheraden,2,20,42003562500,5,6,1-16,40.4586794390213,-80.0545379728454
518,"2300 BLOCK CANDACE ST PITTSBURGH, PA 15216",2,0,1,1,0,0,2015,11,5,Beechview,4,19,42003192000,5,6,4-28,40.4025398697942,-80.0321500227608
519,"1200 BLOCK MOHLER ST PITTSBURGH, PA 15221",2,0,2,0,0,0,2015,11,5,Homewood North,9,13,42003130100,2,5,3-17,40.4593708354313,-79.8864602237102
520,"1000 BLOCK BEECHER ST PITTSBURGH, PA 15208",1,0,0,1,0,0,2015,11,5,Homewood West,9,12,42003120700,2,5,3-17,40.4598248803042,-79.9023892264957
521,"FRANKSTOWN AVE & BENNETT ST PITTSBURGH, PA 15208",1,0,0,1,0,0,2015,11,6,Homewood West,9,12,42003120700,2,5,3-17,40.4580943166088,-79.904589680177
522,"BRUSHTON AVE & TIOGA ST PITTSBURGH, PA 15221",1,0,1,0,0,0,2015,11,6,Homewood South,9,13,42003130400,2,5,3-17,40.4512616356723,-79.8900438530763
523,"1600 BLOCK CRUCIBLE ST PITTSBURGH, PA 15220",1,0,1,0,0,0,2015,11,6,Crafton Heights,2,28,42003281400,5,6,1-17,40.4474571296139,-80.0517211557198
524,"6500 BLOCK FRANKSTOWN AVE PITTSBURGH, PA 15206",1,0,1,0,0,0,2015,11,6,Larimer,9,12,42003120800,2,5,3-10,40.4604152411552,-79.9137653117153
525,"1500 BLOCK ARCH ST PITTSBURGH, PA 15212",1,0,1,0,0,0,2015,11,6,Central Northside,6,25,42003250300,1,1,1-21,40.458004817403,-80.0093736965951
526,"1800 BLOCK SARAH ST PITTSBURGH, PA 15203",1,0,1,0,0,0,2015,11,6,South Side Flats,3,17,42003170200,3,3,4-24,40.4278358873197,-79.9806202963576
527,"1600 BLOCK WORTHINGTON ST PITTSBURGH, PA 15206",19,1,12,2,3,1,2015,11,6,Lincoln-Lemington-Belmar,9,12,42003561900,2,5,3-18,40.4683723873686,-79.8917006112731
528,"ESTELLA AVE & E WARRINGTON AVE PITTSBURGH, PA 15210",1,0,1,0,0,0,2015,11,6,Beltzhoover,3,18,42003562400,5,3,4-21,40.4210219325903,-80.0005565362524
529,"FRANKSTOWN AVE & TORRENS ST PITTSBURGH, PA 15206",1,0,1,0,0,0,2015,11,6,Larimer,9,12,42003120800,2,5,3-10,40.4593462357168,-79.9105451603757
530,"4800 BLOCK FRIENDSHIP AVE PITTSBURGH, PA 15224",1,0,1,0,0,0,2015,12,0,Bloomfield,7,8,42003080900,2,5,3-6,40.4621317678597,-79.9462630434165
531,"3400 BLOCK FORBES AVE PITTSBURGH, PA 15213",1,0,1,0,0,0,2015,12,0,Central Oakland,3,4,42003040500,3,4,2-14,40.4384190708353,-79.9609006805401
532,"200 BLOCK MOORE AVE PITTSBURGH, PA 15210",1,0,0,1,0,0,2015,12,1,Knoxville,3,30,42003300100,5,3,4-7,40.411391761096,-79.9904119074762
533,"400 BLOCK 44TH ST PITTSBURGH, PA 15201",1,0,0,1,0,0,2015,12,1,Central Lawrenceville,7,9,42003090200,2,2,3-3,40.468315839206,-79.9554926242103
534,"300 BLOCK S MATHILDA ST PITTSBURGH, PA 15224",1,0,1,0,0,0,2015,12,1,Garfield,9,10,42003101700,2,5,3-4,40.4670482469463,-79.9458981160022
535,"TOKAY ST & MAPLEWOOD AVE PITTSBURGH, PA 15221",1,0,1,0,0,0,2015,12,1,East Hills,9,13,42003130600,2,5,3-17,40.4523241125516,-79.8777075455702
536,"4400 BLOCK STANTON AVE PITTSBURGH, PA 15201",1,0,1,0,0,0,2015,12,1,Stanton Heights,7,10,42003101800,2,5,3-7,40.4820136080957,-79.940501987245
537,"100 BLOCK SHILOH ST PITTSBURGH, PA 15211",1,0,1,0,0,0,2015,12,2,Mount Washington,2,19,42003190300,5,3,4-27,40.4315590898828,-80.0067026009736
538,"1000 BLOCK WOODBINE ST PITTSBURGH, PA 15201",1,0,1,0,0,0,2015,12,2,,,,,,5,,,
539,"100 BLOCK FLOWERS AVE PITTSBURGH, PA 15207",1,0,1,0,0,0,2015,12,2,,,,,,4,,,
540,"4800 BLOCK HATFIELD ST PITTSBURGH, PA 15201",1,0,0,0,1,0,2015,12,2,Central Lawrenceville,7,9,42003090100,2,2,3-5,40.4766629709995,-79.9587973393457
541,"6500 BLOCK DEARY ST PITTSBURGH, PA 15206",2,0,0,1,1,0,2015,12,2,Lincoln-Lemington-Belmar,9,12,42003120300,2,5,3-15,40.4669114713731,-79.9059867378875
542,"500 BLOCK LOWELL ST PITTSBURGH, PA 15206",2,0,0,0,2,0,2015,12,3,Larimer,9,12,42003120400,2,5,3-12,40.4622272316429,-79.9110388201036
543,"<100 BLOCK WINDOM HILL PL PITTSBURGH, PA 15203",1,0,1,0,0,0,2015,12,3,South Side Slopes,3,17,42003170600,3,3,4-2,40.427614694247,-79.9937682702911
544,"MILLBRIDGE ST & EXCELSIOR ST PITTSBURGH, PA 15210",1,0,1,0,0,0,2015,12,3,Allentown,3,18,42003180300,5,3,4-5,40.4227660133207,-79.9958424264438
545,"6TH ST & PENN AVE PITTSBURGH, PA 15222",1,0,1,0,0,0,2015,12,3,Central Business District,6,2,42003020100,6,2,1-3,40.4427499623409,-80.002152975198
546,"SHERWOOD AVE & CITADEL ST PITTSBURGH, PA 15204",2,0,2,0,0,0,2015,12,3,Sheraden,2,20,42003562500,5,6,1-16,40.4547155057255,-80.05826321095
547,"1100 BLOCK SHEFFIELD ST PITTSBURGH, PA 15233",1,0,1,0,0,0,2015,12,3,Manchester,6,21,42003210700,1,1,1-8,40.4542119808614,-80.0212651754904
548,"<100 BLOCK ALMEDA ST PITTSBURGH, PA 15207",1,0,1,0,0,0,2015,12,4,Hazelwood,5,15,42003562300,3,4,2-13,40.4029341672071,-79.9418689977107
549,"3500 BLOCK FLEMING AVE PITTSBURGH, PA 15212",1,0,1,0,0,0,2015,12,4,Brighton Heights,1,27,42003270300,1,1,1-14,40.4785954963994,-80.038477869206
550,"600 BLOCK WINFIELD ST PITTSBURGH, PA 15206",2,0,1,0,1,0,2015,12,4,,,,,,5,,,
551,"E CARSON ST & S 14TH ST PITTSBURGH, PA 15203",2,1,1,0,0,0,2015,12,4,South Side Flats,3,17,42003170200,3,3,4-24,40.42880715024,-79.9841490514312
552,"1200 BLOCK BREED ST PITTSBURGH, PA 15203",1,0,1,0,0,0,2015,12,4,,,,,,3,,,
553,"LIBERTY AVE & 9TH ST PITTSBURGH, PA 15222",1,0,1,0,0,0,2015,12,4,Central Business District,6,2,42003020100,6,2,1-3,40.4429445426381,-79.9979769770073
554,"CARRIE ST & HENDERSON ST PITTSBURGH, PA 15212",1,1,0,0,0,0,2015,12,5,Fineview,1,25,42003250900,1,1,1-10,40.4612825101567,-80.0016655336027
555,"100 BLOCK SHILOH ST PITTSBURGH, PA 15211",1,0,1,0,0,0,2015,12,5,Mount Washington,2,19,42003190300,5,3,4-27,40.4315590898828,-80.0067026009736
556,"1300 BLOCK CHICAGO ST PITTSBURGH, PA 15214",2,0,2,0,0,0,2015,12,5,Northview Heights,1,26,42003260900,1,1,1-13,40.4780460801605,-80.0018064639388
557,"JOSEPHINE ST & SALISBURY ST PITTSBURGH, PA 15210",1,0,1,0,0,0,2015,12,6,South Side Slopes,3,16,42003160800,3,3,4-22,40.4180383092721,-79.9669116409835
558,"700 BLOCK MT PLEASANT RD PITTSBURGH, PA 15214",1,0,0,0,1,0,2015,12,6,Northview Heights,1,26,42003260900,1,1,1-13,40.4759997700279,-79.9982412589835
559,"300 BLOCK MT PLEASANT RD PITTSBURGH, PA 15214",1,0,1,0,0,0,2015,12,6,,,,,,1,,,
560,"500 BLOCK PAULSON AVE PITTSBURGH, PA 15206",1,0,0,0,1,0,2015,12,6,Larimer,9,12,42003120400,2,5,3-12,40.4632524802595,-79.9120987736764
561,"HAMILTON AVE & 5TH AVE PITTSBURGH, PA 15208",1,1,0,0,0,0,2015,12,6,Homewood West,9,12,42003120700,2,5,3-17,40.4572898625102,-79.9090629890633
562,"2900 BLOCK HARCUM WAY PITTSBURGH, PA 15203",1,0,1,0,0,0,2016,1,0,,,,,,3,,,
563,"KELLY ST & DURANGO WAY PITTSBURGH, PA 15221",1,0,0,1,0,0,2016,1,0,Homewood South,9,13,42003130400,2,5,3-17,40.4538005385625,-79.8893911417463
564,"N DALLAS AVE & BENNETT ST PITTSBURGH, PA 15208",1,0,1,0,0,0,2016,1,0,Homewood West,9,12,42003120700,2,5,3-17,40.4580168093674,-79.9040844401324
565,"700 BLOCK INDUSTRY ST PITTSBURGH, PA 15210",1,0,0,1,0,0,2016,1,0,Allentown,3,18,42003180300,5,3,4-21,40.4207814058584,-79.9957627118344
566,"6600 BLOCK HAMILTON AVE PITTSBURGH, PA 15206",2,0,1,1,0,0,2016,1,0,Larimer,9,12,42003120800,2,5,3-10,40.457698841715,-79.9107607308275
567,"7300 BLOCK BENNETT ST PITTSBURGH, PA 15208",1,0,1,0,0,0,2016,1,0,Homewood South,9,13,42003130300,2,5,3-17,40.4558325018899,-79.8944177791546
568,"1300 BLOCK CENTRE AVE PITTSBURGH, PA 15219",1,0,0,1,0,0,2016,1,0,,,,,,2,,,
569,"400 BLOCK E AGNEW AVE PITTSBURGH, PA 15210",2,0,0,0,2,0,2016,1,1,Carrick,4,29,42003290200,3,3,4-12,40.3972688203475,-79.9798514988959
570,"6900 BLOCK FRANKSTOWN AVE PITTSBURGH, PA 15208",1,0,1,0,0,0,2016,1,1,,,,,,5,,,
571,"1400 BLOCK HILLSBORO ST PITTSBURGH, PA 15204",1,0,1,0,0,0,2016,1,1,Sheraden,2,20,42003202200,5,6,1-16,40.4500904762954,-80.0620434750216
572,"2000 BLOCK DE RUAD ST PITTSBURGH, PA 15219",1,0,1,0,0,0,2016,1,1,,,,,,4,,,
573,"EDGEMONT ST & AZTEC WAY PITTSBURGH, PA 15211",1,0,1,0,0,0,2016,1,2,Mount Washington,3,18,42003180700,5,3,4-5,40.422413904409,-79.9980987164895
574,"1300 BLOCK WOODS RUN AVE PITTSBURGH, PA 15212",1,0,1,0,0,0,2016,1,2,,,,42003561200,,1,3-16,40.4462203199414,-79.8829977223854
575,"8400 BLOCK ROLFE ST PITTSBURGH, PA 15221",1,1,0,0,0,0,2016,1,3,,,,,,5,,,
576,"1100 BLOCK BRUSHTON AVE PITTSBURGH, PA 15221",1,0,0,1,0,0,2016,1,3,Homewood North,9,13,42003130100,2,5,3-17,40.4579459828259,-79.888380239953
577,"2500 BLOCK BROWNSVILLE RD PITTSBURGH, PA 15210",1,0,1,0,0,0,2016,1,3,Carrick,4,29,42003290400,3,3,4-23,40.3866924905731,-79.9811511391941
578,"800 BLOCK BAY RIDGE AVE PITTSBURGH, PA 15226",5,2,2,0,1,0,2016,1,3,Brookline,4,19,42003191800,5,6,4-26,40.3917270123499,-80.0224273985044
579,"3300 BLOCK BAINTON ST PITTSBURGH, PA 15212",1,0,0,1,0,0,2016,1,3,,,,,,1,,,
580,"300 BLOCK N FAIRMOUNT ST PITTSBURGH, PA 15206",1,0,1,0,0,0,2016,1,3,Garfield,9,11,42003111400,2,5,3-4,40.4664390974889,-79.9310082872483
581,"2400 BLOCK ARLINGTON AVE PITTSBURGH, PA 15210",5,0,3,0,2,0,2016,1,4,Arlington,3,16,42003561600,3,3,4-22,40.4172999409484,-79.9728420978939
582,"5TH AVE & DIAMOND ST PITTSBURGH, PA 15219",2,0,2,0,0,0,2016,1,4,Central Business District,6,2,42003020100,6,2,2-4,40.4388770534495,-79.9924373197055
583,"100 BLOCK RHINE PL PITTSBURGH, PA 15212",1,0,0,1,0,0,2016,1,4,Spring Hill-City View,1,24,42003262000,1,1,1-24,40.4653596489546,-79.9920418451489
584,"700 BLOCK N LANG AVE PITTSBURGH, PA 15208",2,0,0,1,0,1,2016,1,4,Homewood South,9,13,42003130300,2,5,3-17,40.4560674525382,-79.8992389478017
585,"700 BLOCK ALLEGHENY AVE PITTSBURGH, PA 15233",1,0,1,0,0,0,2016,1,4,Allegheny West,1,22,42003562700,1,1,1-8,40.4497148842455,-80.0183109568803
586,"LEMINGTON AVE & LINCOLN AVE PITTSBURGH, PA 15206",1,0,1,0,0,0,2016,1,4,Lincoln-Lemington-Belmar,9,12,42003120300,2,5,3-18,40.4687570060556,-79.8960503819162
587,"1300 BLOCK SUPERIOR AVE PITTSBURGH, PA 15212",2,0,2,0,0,0,2016,1,4,Marshall-Shadeland,1,27,42003270400,1,1,1-14,40.4680195268034,-80.0298823861196
588,"700 BLOCK LORENZ AVE PITTSBURGH, PA 15220",1,0,1,0,0,0,2016,1,4,Elliott,2,20,42003562600,5,6,1-17,40.445118013911,-80.0392498746165
589,"800 BLOCK CASINO ST PITTSBURGH, PA 15233",1,0,1,0,0,0,2016,1,5,Chateau,6,21,42003980600,6,1,1-8,40.4468215489554,-80.020451607988
590,"6400 BLOCK BROAD ST PITTSBURGH, PA 15206",1,0,1,0,0,0,2016,1,5,,,,,,5,,,
591,"FRANKSTOWN AVE & BRUSHTON AVE PITTSBURGH, PA 15221",1,0,1,0,0,0,2016,1,5,Homewood South,9,13,42003130400,2,5,3-17,40.4555344380276,-79.8880963867104
592,"1ST AVE & SMITHFIELD ST PITTSBURGH, PA 15222",1,0,0,1,0,0,2016,1,5,Central Business District,6,1,42003020100,6,2,1-4,40.4372427437596,-80.0005496204335
593,"ALLEN ST & INDUSTRY ST PITTSBURGH, PA 15210",1,0,1,0,0,0,2016,1,5,Allentown,3,18,42003180300,5,3,4-6,40.420821324528,-79.9937181336173
594,"N LANG AVE & UPLAND ST PITTSBURGH, PA 15208",1,0,1,0,0,0,2016,1,5,Homewood North,9,13,42003130100,2,5,3-18,40.4627659348695,-79.8975520540997
595,"1600 BLOCK CRUCIBLE ST PITTSBURGH, PA 15220",1,0,0,0,1,0,2016,1,5,Crafton Heights,2,28,42003281400,5,6,1-17,40.4474571296139,-80.0517211557198
596,"100 BLOCK MILLBRIDGE ST PITTSBURGH, PA 15210",6,0,0,1,4,1,2016,1,5,Allentown,3,18,42003180300,5,3,4-21,40.421752426669,-79.9958297289367
597,"1300 BLOCK DAGMAR AVE PITTSBURGH, PA 15216",5,0,4,0,1,0,2016,1,5,,,,,,6,,,
598,"3200 BLOCK JOSEPHINE ST PITTSBURGH, PA 15203",1,0,1,0,0,0,2016,1,6,South Side Slopes,3,16,42003160800,3,3,4-22,40.4200119668792,-79.9642350172037
599,"1200 BLOCK SANDUSKY STN PITTSBURGH, PA 15212",3,0,3,0,0,0,2016,1,6,,,,,,1,,,
600,"GRANT ST & OLIVER AVE PITTSBURGH, PA 15219",1,0,1,0,0,0,2016,1,6,Central Business District,6,2,42003020100,6,2,1-4,40.4401122485176,-79.9963355107118
601,"TERRACE ST & CHESTERFIELD RD PITTSBURGH, PA 15213",1,0,1,0,0,0,2016,1,6,West Oakland,6,4,42003040200,3,4,2-10,40.4410116631782,-79.9638292789021
602,"1400 BLOCK HERMAN ST PITTSBURGH, PA 15212",2,0,1,1,0,0,2016,2,0,,,,,,1,,,
603,"LIBERTY AVE & STANWIX ST PITTSBURGH, PA 15222",1,0,1,0,0,0,2016,2,0,Central Business District,6,2,42003020100,6,2,1-3,40.4413793329236,-80.0039005755647
604,"600 BLOCK PENN AVE PITTSBURGH, PA 15222",1,0,1,0,0,0,2016,2,0,Central Business District,6,2,42003020100,6,2,1-3,40.4425929172081,-80.0017928321911
605,"FRANKSTOWN AVE & TORRENS ST PITTSBURGH, PA 15206",1,0,1,0,0,0,2016,2,0,Larimer,9,12,42003120800,2,5,3-10,40.4593462357168,-79.9105451603757
606,"BEDFORD AVE & SOMERS DR PITTSBURGH, PA 15219",2,0,2,0,0,0,2016,2,0,Bedford Dwellings,6,5,42003050100,3,2,2-5,40.4489687153923,-79.9766092941591
607,"800 BLOCK BRUSHTON AVE PITTSBURGH, PA 15221",1,0,1,0,0,0,2016,2,1,Homewood South,9,13,42003130400,2,5,3-17,40.4546298092284,-79.8884409987312
608,"1000 BLOCK SHEFFIELD ST PITTSBURGH, PA 15233",1,0,1,0,0,0,2016,2,1,,,,,,1,,,
609,"300 BLOCK PYNCHON ST PITTSBURGH, PA 15214",1,0,1,0,0,0,2016,2,1,Fineview,1,25,42003250900,1,1,1-10,40.4648544486862,-80.0035992372341
610,"2600 BLOCK BEDFORD AVE PITTSBURGH, PA 15219",1,0,1,0,0,0,2016,2,1,Bedford Dwellings,6,5,42003050900,3,2,2-5,40.4514248226736,-79.9708042851944
611,"BRIGHTRIDGE ST & N CHARLES ST PITTSBURGH, PA 15212",1,0,1,0,0,0,2016,2,2,Perry South,6,25,42003261400,1,1,1-12,40.4620622508736,-80.0182780629415
612,"1100 BLOCK AMANDA AVE PITTSBURGH, PA 15210",3,0,3,0,0,0,2016,2,2,Carrick,4,29,42003290200,3,3,4-12,40.4054831758939,-79.9892749739226
613,"100 BLOCK S 18TH ST PITTSBURGH, PA 15203",1,0,1,0,0,0,2016,2,2,South Side Flats,3,17,42003170200,3,3,4-24,40.4281392487418,-79.9808361201944
614,"1500 BLOCK BARR AVE PITTSBURGH, PA 15205",1,0,0,1,0,0,2016,2,2,,,,42003563100,,6,,40.4364694383547,-80.0582577439597
615,"200 BLOCK MERRIMAC ST PITTSBURGH, PA 15211",1,0,1,0,0,0,2016,2,3,Mount Washington,2,19,42003190300,5,3,4-1,40.4328049112356,-80.0136312932039
616,"1600 BLOCK SANDUSKY CT PITTSBURGH, PA 15212",1,0,1,0,0,0,2016,2,3,Central Northside,6,25,42003220600,1,1,1-10,40.4589236267468,-80.0055084339585
617,"1200 BLOCK GROTTO ST PITTSBURGH, PA 15206",1,0,1,0,0,0,2016,2,3,,,,,,5,,,
618,"2400 BLOCK WYLIE AVE PITTSBURGH, PA 15219",1,0,1,0,0,0,2016,2,4,Middle Hill,6,5,42003050100,3,2,2-5,40.4473130049607,-79.9730907418123
619,"3500 BLOCK CALIFORNIA AVE PITTSBURGH, PA 15212",1,0,1,0,0,0,2016,2,4,Brighton Heights,1,27,42003270300,1,1,1-14,40.4782614682453,-80.0402734714646
620,"4900 BLOCK DEARBORN ST PITTSBURGH, PA 15224",1,0,1,0,0,0,2016,2,4,Garfield,9,10,42003101700,2,5,3-4,40.4660512320495,-79.9450371897534
621,"3400 BLOCK CALIFORNIA AVE PITTSBURGH, PA 15212",3,1,1,0,0,1,2016,2,4,Brighton Heights,1,27,42003270300,1,1,1-14,40.4763858999285,-80.0397246911833
622,"TIOGA ST & ROSEDALE ST PITTSBURGH, PA 15221",1,0,0,1,0,0,2016,2,5,Homewood South,9,13,42003130400,2,5,3-17,40.4500448741961,-79.8868360166362
623,"100 BLOCK MADELINE ST PITTSBURGH, PA 15210",1,0,0,1,0,0,2016,2,5,Carrick,4,29,42003290200,3,3,4-12,40.3941806389238,-79.9852220254286
624,"BRYN MAWR RD & CENTRE AVE PITTSBURGH, PA 15213",1,0,1,0,0,0,2016,2,5,Upper Hill,8,4,42003050600,3,4,2-23,40.4489804267088,-79.9577136942605
625,"1200 BLOCK SANDUSKY STN PITTSBURGH, PA 15212",1,0,1,0,0,0,2016,2,5,,,,,,1,,,
626,"1300 BLOCK BREINING ST PITTSBURGH, PA 15226",2,0,0,1,0,1,2016,2,5,Brookline,4,19,42003191800,5,6,4-26,40.3912061535699,-80.0107020458207
627,"2400 BLOCK SARAH ST PITTSBURGH, PA 15203",1,0,0,0,1,0,2016,2,5,South Side Flats,3,16,42003160900,3,3,4-24,40.42727624563,-79.9713981535969
628,"WYLIE AVE & JUNILLA ST PITTSBURGH, PA 15219",1,0,1,0,0,0,2016,2,5,Middle Hill,6,5,42003050100,3,2,2-5,40.4481046487472,-79.9717123857826
629,"6400 BLOCK APPLE AVE PITTSBURGH, PA 15206",1,0,0,1,0,0,2016,2,5,,,,,,5,,,
630,"FRANKSTOWN AVE & COLLIER ST PITTSBURGH, PA 15208",1,0,1,0,0,0,2016,2,5,Homewood South,9,13,42003130300,2,5,3-17,40.4564009200712,-79.8919053652988
631,"400 BLOCK SMITHFIELD ST PITTSBURGH, PA 15222",1,0,1,0,0,0,2016,2,5,Central Business District,6,1,42003020100,6,2,1-4,40.4387869875111,-79.9993229906853
632,"HAMILTON AVE & EAST LIBERTY BLVD PITTSBURGH, PA 15206",1,0,1,0,0,0,2016,2,6,East Liberty,9,12,42003120800,2,5,3-10,40.4598661864644,-79.9157742797879
633,"1200 BLOCK DICKSON ST PITTSBURGH, PA 15212",1,0,0,1,0,0,2016,2,6,Marshall-Shadeland,1,27,42003271500,1,1,1-14,40.470214299751,-80.0280790451795
634,"HAMILTON AVE & EAST LIBERTY BLVD PITTSBURGH, PA 15206",1,0,1,0,0,0,2016,2,6,East Liberty,9,12,42003120800,2,5,3-10,40.4598661864644,-79.9157742797879
635,"1000 BLOCK WOODLOW ST PITTSBURGH, PA 15205",3,0,3,0,0,0,2016,2,6,Crafton Heights,2,28,42003281400,5,6,1-17,40.4458030664507,-80.0523889710639
636,"2500 BLOCK PARK HILL DR PITTSBURGH, PA 15221",1,0,1,0,0,0,2016,3,0,East Hills,9,13,42003130600,2,5,3-19,40.4561140005372,-79.8732271471488
637,"1900 BLOCK SAW MILL RUN BLVD PITTSBURGH, PA 15210",1,0,1,0,0,0,2016,3,0,Overbrook,4,32,42003320600,5,3,4-25,40.3940451475447,-79.9972856091361
638,"6800 BLOCK FRANKSTOWN AVE PITTSBURGH, PA 15208",1,0,1,0,0,0,2016,3,0,Homewood West,9,12,42003120700,2,5,3-17,40.4581223295946,-79.9059851373518
639,"500 BLOCK GARNER CT PITTSBURGH, PA 15213",1,0,1,0,0,0,2016,3,0,,,,,,2,,,
640,"1600 BLOCK SANDUSKY CT PITTSBURGH, PA 15212",4,0,3,1,0,0,2016,3,1,Central Northside,6,25,42003220600,1,1,1-10,40.4589236267468,-80.0055084339585
641,"200 BLOCK WINSTON ST PITTSBURGH, PA 15207",1,0,1,0,0,0,2016,3,1,Hazelwood,5,15,42003562300,3,4,2-13,40.4047608456116,-79.9414656076942
642,"1400 BLOCK N MURTLAND ST PITTSBURGH, PA 15208",1,0,1,0,0,0,2016,3,1,Homewood North,9,13,42003130100,2,5,3-18,40.4625694692905,-79.899529501871
643,"BLOCK OVER VIEW PARK PITTSBURGH, PA",2,0,0,2,0,0,2016,3,1,,,,,,6,,,
644,"<100 BLOCK BELTZHOOVER AVE PITTSBURGH, PA 15210",1,0,1,0,0,0,2016,3,1,Beltzhoover,3,18,42003562400,5,3,4-21,40.4199710984937,-79.9973571665514
645,"800 BLOCK GEORGIA AVE PITTSBURGH, PA 15210",1,0,1,0,0,0,2016,3,1,Knoxville,3,30,42003300100,5,3,4-7,40.409418539281,-79.9954392857757
646,"1400 BLOCK WESTFIELD ST PITTSBURGH, PA 15216",1,0,1,0,0,0,2016,3,2,Beechview,4,19,42003191600,5,6,4-28,40.4131383664171,-80.0193216136418
647,"2200 BLOCK WILNER DR PITTSBURGH, PA 15221",1,0,1,0,0,0,2016,3,2,,,,,,5,,,
648,"800 BLOCK BERKSHIRE AVE PITTSBURGH, PA 15226",1,0,1,0,0,0,2016,3,2,Brookline,4,19,42003191800,5,6,4-26,40.3933212058425,-80.0210913656462
649,"FEDERAL STN & E NORTH AVE PITTSBURGH, PA 15212",1,0,0,1,0,0,2016,3,2,Central Northside,1,22,42003562700,1,1,1-21,40.4554569884448,-80.0066356663443
650,"300 BLOCK BOGGSTON AVE PITTSBURGH, PA 15210",1,0,1,0,0,0,2016,3,2,Beltzhoover,3,18,42003562400,5,3,4-16,40.418116992027,-80.0099444241125
651,"BRIGHTON RD & TERMON AVE PITTSBURGH, PA 15212",3,1,2,0,0,0,2016,3,2,Brighton Heights,1,27,42003270100,1,1,1-14,40.4830608671438,-80.035424371002
652,"2400 BLOCK CHAUNCEY DR PITTSBURGH, PA 15219",1,0,1,0,0,0,2016,3,2,Bedford Dwellings,6,5,42003050900,3,2,2-5,40.4498408057687,-79.9746251357847
653,"5TH AVE & FRANKSTOWN AVE PITTSBURGH, PA 15208",1,0,1,0,0,0,2016,3,3,Larimer,9,12,42003120800,2,5,3-17,40.4586818050989,-79.908043509612
654,"5TH AVE & FRANKSTOWN AVE PITTSBURGH, PA 15208",1,0,1,0,0,0,2016,3,3,Larimer,9,12,42003120800,2,5,3-17,40.4586818050989,-79.908043509612
655,"1100 BLOCK WHEELER ST PITTSBURGH, PA 15221",1,0,1,0,0,0,2016,3,3,Homewood North,9,13,42003130100,2,5,3-17,40.4593953243619,-79.8845068570849
656,"TAYLOR ST & CORDAY WAY PITTSBURGH, PA 15224",1,0,0,1,0,0,2016,3,3,Bloomfield,7,9,42003090300,2,5,3-6,40.4630478497568,-79.9505617930908
657,"300 BLOCK N GRAHAM ST PITTSBURGH, PA 15206",1,0,1,0,0,0,2016,3,3,Garfield,9,11,42003111400,2,5,3-4,40.4668902555557,-79.9337854224608
658,"300 BLOCK CEDAR AVE PITTSBURGH, PA 15212",1,0,1,0,0,0,2016,3,3,East Allegheny,1,22,42003563200,1,1,1-20,40.4508935599436,-80.0009078039902
659,"FAULSEY WAY & FONTELLA ST PITTSBURGH, PA 15233",1,0,1,0,0,0,2016,3,3,Manchester,6,21,42003210700,1,1,1-8,40.4523793909837,-80.0221301263847
660,"300 BLOCK ORIN ST PENN HILLS, PA 15235",4,0,2,1,1,0,2016,3,3,,,,42003523200,,OSC,,40.4613741143572,-79.8538232199745
661,"ALLEN ST & INDUSTRY ST PITTSBURGH, PA 15210",1,0,1,0,0,0,2016,3,4,Allentown,3,18,42003180300,5,3,4-6,40.420821324528,-79.9937181336173
662,"300 BLOCK N GRAHAM ST PITTSBURGH, PA 15206",1,0,0,1,0,0,2016,3,4,Garfield,9,11,42003111400,2,5,3-4,40.4668902555557,-79.9337854224608
663,"7000 BLOCK MT VERNON ST PITTSBURGH, PA 15208",3,0,3,0,0,0,2016,3,4,Homewood North,9,13,42003130100,2,5,3-18,40.4625297665184,-79.8995187532851
664,"7200 BLOCK RACE ST PITTSBURGH, PA 15208",1,0,0,1,0,0,2016,3,4,Homewood North,9,13,42003130200,2,5,3-17,40.4588367492801,-79.8957066026393
665,"HAMILTON AVE & ALBION ST PITTSBURGH, PA 15208",1,0,1,0,0,0,2016,3,4,Homewood South,9,13,42003130300,2,5,3-17,40.4542107866195,-79.8956630370336
666,"SAW MILL RUN BLVD & OVERBROOK BLVD PITTSBURGH, PA 15210",1,0,1,0,0,0,2016,3,4,Overbrook,4,32,42003320400,5,3,4-25,40.3850244896223,-79.9948787550424
667,"6300 BLOCK MONITOR ST PITTSBURGH, PA 15217",1,0,1,0,0,0,2016,3,4,Squirrel Hill South,5,14,42003141400,3,4,2-15,40.4253248205655,-79.9238544240622
668,"3700 BLOCK FRAZIER ST PITTSBURGH, PA 15213",1,0,1,0,0,0,2016,3,4,South Oakland,3,4,42003040900,3,4,2-11,40.4293180630043,-79.9546207780439
669,"2200 BLOCK WILNER DR PITTSBURGH, PA 15221",2,0,1,1,0,0,2016,3,4,,,,,,5,,,
670,"1500 BLOCK CRUCIBLE ST PITTSBURGH, PA 15220",1,0,1,0,0,0,2016,3,5,,,,,,6,,,
671,"1200 BLOCK WOODS RUN AVE PITTSBURGH, PA 15212",1,0,0,1,0,0,2016,3,5,,,,42003561200,,1,3-16,40.4453528891864,-79.8836651865202
672,"HILLSBORO ST & BRIDGELY WAY PITTSBURGH, PA 15204",2,0,1,1,0,0,2016,3,5,Sheraden,2,20,42003562500,5,6,1-16,40.4536230081577,-80.0530477778621
673,"400 BLOCK PENFORT ST PITTSBURGH, PA 15214",1,0,1,0,0,0,2016,3,5,,,,,,1,,,
674,"200 BLOCK S MILLVALE AVE PITTSBURGH, PA 15224",1,0,1,0,0,0,2016,3,5,Bloomfield,7,8,42003080900,2,5,3-6,40.4648634313753,-79.9457223576116
675,"1600 BLOCK PENN AVE PITTSBURGH, PA 15222",2,0,2,0,0,0,2016,3,6,Strip District,7,2,42003020300,6,2,2-3,40.4488350628836,-79.987472181919
676,"1600 BLOCK SMALLMAN ST PITTSBURGH, PA 15222",1,0,1,0,0,0,2016,3,6,Strip District,7,2,42003020300,6,2,2-3,40.4495741585862,-79.9876500010743
677,"1600 BLOCK SMALLMAN ST PITTSBURGH, PA 15222",1,0,1,0,0,0,2016,3,6,Strip District,7,2,42003020300,6,2,2-3,40.4495741585862,-79.9876500010743
678,"FRANKSTOWN AVE & STERRETT ST PITTSBURGH, PA 15208",1,0,1,0,0,0,2016,4,0,Homewood South,9,13,42003130300,2,5,3-17,40.4569078074907,-79.8941483332637
679,"4800 BLOCK MONONGAHELA ST PITTSBURGH, PA 15207",1,0,1,0,0,0,2016,4,0,Hazelwood,5,15,42003562300,3,4,2-13,40.4112919641888,-79.9426332284025
680,"600 BLOCK WOOD ST PITTSBURGH, PA 15222",1,0,0,1,0,0,2016,4,0,Central Business District,6,2,42003020100,6,2,1-3,40.4421288537323,-79.9994765276478
681,"600 BLOCK NEGLEY RUN BLVD PITTSBURGH, PA 15206",1,0,0,1,0,0,2016,4,1,East Liberty,9,11,42003111300,2,5,3-8,40.4687226787904,-79.9270083246785
682,"5800 BLOCK EAST LIBERTY BLVD PITTSBURGH, PA 15206",1,0,1,0,0,0,2016,4,1,East Liberty,9,11,42003111300,2,5,3-8,40.4667740769391,-79.9252435226896
683,"7200 BLOCK RACE ST PITTSBURGH, PA 15208",1,0,0,1,0,0,2016,4,1,Homewood North,9,13,42003130200,2,5,3-17,40.4588367492801,-79.8957066026393
684,"900 BLOCK CALIFORNIA AVE PITTSBURGH, PA 15212",1,0,1,0,0,0,2016,4,1,California-Kirkbride,6,25,42003250700,1,1,1-9,40.4594095362475,-80.0191758136394
685,"CLIMAX ST & HABERMAN AVE PITTSBURGH, PA 15210",1,0,1,0,0,0,2016,4,1,Beltzhoover,3,18,42003562400,5,3,4-16,40.4198973879625,-80.0024285803933
686,"1800 BLOCK FAHNESTOCK ST PITTSBURGH, PA 15221",1,0,1,0,0,0,2016,4,2,,,,,,5,,,
687,"MAPLE CT & WOODLOW ST PITTSBURGH, PA 15205",1,0,1,0,0,0,2016,4,2,,,,,,6,,,
688,"1100 BLOCK SHEFFIELD ST PITTSBURGH, PA 15233",1,0,0,1,0,0,2016,4,2,Manchester,6,21,42003210700,1,1,1-8,40.4542119808614,-80.0212651754904
689,"ROETHLEIN WAY & WELSER WAY PITTSBURGH, PA 15212",2,0,2,0,0,0,2016,4,2,Spring Garden,1,24,42003241200,1,1,1-5,40.4596020568515,-79.9924829500218
690,"1600 BLOCK LOWRIE ST PITTSBURGH, PA 15212",1,0,1,0,0,0,2016,4,3,Troy Hill,1,24,42003240600,1,1,1-2,40.4627512953769,-79.9835621773248
691,"1700 BLOCK BELLEAU DR PITTSBURGH, PA 15212",1,0,1,0,0,0,2016,4,3,Fineview,6,25,42003250900,1,1,1-10,40.460310552493,-80.0069833937371
692,"7600 BLOCK SUSQUEHANNA ST PITTSBURGH, PA 15208",1,0,1,0,0,0,2016,4,3,Homewood South,9,13,42003130400,2,5,3-17,40.4510080914673,-79.8921614763654
693,"200 BLOCK OAK HILL DR PITTSBURGH, PA 15213",1,0,1,0,0,0,2016,4,3,,,,,,2,,,
694,"BROOCH WAY & HAMMOND ST PITTSBURGH, PA 15204",1,0,1,0,0,0,2016,4,3,Sheraden,2,20,42003562500,5,6,1-16,40.4549578311272,-80.0516195425237
695,"ALLEQUIPPA ST & ROBINSON ST PITTSBURGH, PA 15213",1,0,1,0,0,0,2016,4,4,West Oakland,6,5,42003040200,3,4,2-10,40.4428267284104,-79.9657603919615
696,"500 BLOCK DORNESTIC ST PITTSBURGH, PA 15214",4,0,3,1,0,0,2016,4,4,Perry North,1,26,42003260200,1,1,1-15,40.490576980017,-80.0252928635377
697,"4800 BLOCK MONONGAHELA ST PITTSBURGH, PA 15207",1,0,1,0,0,0,2016,4,4,Hazelwood,5,15,42003562300,3,4,2-13,40.4112919641888,-79.9426332284025
698,"100 BLOCK ORMSBY ST PITTSBURGH, PA 15210",1,0,1,0,0,0,2016,4,5,,,,,,3,,,
699,"<100 BLOCK WHARTON CT PITTSBURGH, PA 15203",2,0,2,0,0,0,2016,4,5,South Side Flats,3,16,42003160900,3,3,4-24,40.4296105315065,-79.9681779892639
700,"1100 BLOCK ALLEGHENY AVE PITTSBURGH, PA 15233",1,0,0,1,0,0,2016,4,5,Central Northside,1,22,42003220600,1,1,1-8,40.4532606937405,-80.0193416887673
701,"WEBSTER AVE & ERIN ST PITTSBURGH, PA 15219",1,0,1,0,0,0,2016,4,5,Middle Hill,6,5,42003050100,3,2,2-1,40.4463206969104,-79.980328082151
702,"1600 BLOCK SANDUSKY CT PITTSBURGH, PA 15212",2,1,1,0,0,0,2016,4,5,Central Northside,6,25,42003220600,1,1,1-10,40.4589236267468,-80.0055084339585
703,"200 BLOCK SHETLAND AVE PITTSBURGH, PA 15206",1,0,1,0,0,0,2016,4,5,Larimer,9,12,42003120400,2,5,3-12,40.4645698832066,-79.9104182880206
704,"300 BLOCK LIBERTY AVE PITTSBURGH, PA 15222",1,0,1,0,0,0,2016,4,5,Central Business District,6,1,42003020100,6,2,1-3,40.4405702014184,-80.006260044902
705,"1500 BLOCK CUMBERLAND ST PITTSBURGH, PA 15205",1,0,1,0,0,0,2016,4,5,,,,,,6,,,
706,"3500 BLOCK CALIFORNIA AVE PITTSBURGH, PA 15212",1,0,0,0,0,1,2016,4,5,Brighton Heights,1,27,42003270300,1,1,1-14,40.4782614682453,-80.0402734714646
707,"HAMILTON AVE & COLLIER ST PITTSBURGH, PA 15208",1,0,1,0,0,0,2016,4,6,Homewood South,9,13,42003130300,2,5,3-17,40.4536074580943,-79.8929956335964
708,"7000 BLOCK PENN AVE PITTSBURGH, PA 15208",4,0,0,1,2,1,2016,4,6,Point Breeze,8,14,42003140600,3,4,3-14,40.4508496642536,-79.9063083105985
709,"BEDFORD AVE & SOMERS ST PITTSBURGH, PA 15219",1,0,1,0,0,0,2016,4,6,Bedford Dwellings,6,5,42003050900,3,2,2-5,40.4494174111877,-79.9755530055693
710,"100 BLOCK MT OLIVER ST PITTSBURGH, PA 15210",2,0,2,0,0,0,2016,4,6,Arlington,3,16,42003561600,3,3,4-8,40.4171160909649,-79.9776394838539
711,"6500 BLOCK ROWAN ST PITTSBURGH, PA 15206",1,0,1,0,0,0,2016,4,6,Lincoln-Lemington-Belmar,9,12,42003120300,2,5,3-15,40.4666791802548,-79.9067909164157
712,"300 BLOCK LOMBARD ST PITTSBURGH, PA 15219",2,0,2,0,0,0,2016,4,6,,,,,,2,,,
713,"300 BLOCK EAST OHIO ST PITTSBURGH, PA 15212",1,0,0,0,1,0,2016,4,6,,,,42003563900,,1,,40.4125315408834,-79.8427960425285
714,"600 BLOCK GENERAL ROBINSON STW PITTSBURGH, PA 15212",1,0,1,0,0,0,2016,5,0,,,,,,1,,,
715,"1000 BLOCK PENN AVE PITTSBURGH, PA 15222",1,0,1,0,0,0,2016,5,0,Central Business District,6,2,42003020100,6,2,1-3,40.4442274414143,-79.9948937550356
716,"S 16TH ST & SARAH ST PITTSBURGH, PA 15203",1,1,0,0,0,0,2016,5,0,South Side Flats,3,17,42003170200,3,3,4-24,40.4276146765682,-79.9828744207113
717,"N CHARLES ST & CANTER WAY PITTSBURGH, PA 15214",1,0,0,0,1,0,2016,5,0,Perry South,6,26,42003261500,1,1,1-23,40.4709104960998,-80.0091474407329
718,"S 10TH ST & E CARSON ST PITTSBURGH, PA 15203",1,0,0,1,0,0,2016,5,0,South Side Flats,3,17,42003170200,3,3,4-24,40.4287104703372,-79.9885762778787
719,"1500 BLOCK CHATEAU ST PITTSBURGH, PA 15233",1,0,1,0,0,0,2016,5,0,Manchester,6,21,42003210700,1,1,1-8,40.4548695103771,-80.02809377972
720,"8400 BLOCK DERSAM ST PITTSBURGH, PA 15221",1,0,1,0,0,0,2016,5,1,East Hills,9,13,42003130100,2,5,3-17,40.457828531348,-79.8782729991671
721,"MANSION ST & GLENWOOD AVE PITTSBURGH, PA 15207",1,0,1,0,0,0,2016,5,1,Hazelwood,5,15,42003562300,3,4,2-13,40.4043869964863,-79.9391748272407
722,"4900 BLOCK KINCAID ST PITTSBURGH, PA 15224",1,0,1,0,0,0,2016,5,1,Garfield,9,10,42003101700,2,5,3-4,40.467524623881,-79.944692448937
723,"2200 BLOCK ARLINGTON AVE PITTSBURGH, PA 15210",2,0,0,0,0,2,2016,5,1,Arlington,3,16,42003561600,3,3,4-8,40.4168449750197,-79.9758779175462
724,"100 BLOCK KNOX AVE PITTSBURGH, PA 15210",1,0,1,0,0,0,2016,5,1,Knoxville,3,30,42003300100,5,3,4-6,40.4155725063979,-79.9905877515385
725,"1000 BLOCK NORWICH AVE PITTSBURGH, PA 15226",2,0,0,2,0,0,2016,5,1,Brookline,4,19,42003191800,5,6,4-26,40.3883488034806,-80.0208725753345
